"stop_id","stop_code","stop_name","stop_desc","stop_lat","stop_lon","zone_id","stop_url","location_type","parent_station","wheelchair_boarding"
"LTFRB_4944",,"Baclaran LRT",,14.5339,120.998,,,0,,0
"LTFRB_4945",,"EDSA LRT",,14.5381,121.001,,,0,,0
"LTFRB_4946",,"Libertad LRT",,14.5479,120.999,,,0,,0
"LTFRB_4947",,"Gil Puyat LRT",,14.5543,120.997,,,0,,0
"LTFRB_4948",,"Vito Cruz LRT",,14.5636,120.995,,,0,,0
"LTFRB_4949",,"Quirino Ave LRT",,14.5703,120.992,,,0,,0
"LTFRB_4950",,"Pedro Gil LRT",,14.5763,120.988,,,0,,0
"LTFRB_4951",,"UN Ave LRT",,14.5826,120.985,,,0,,0
"LTFRB_4952",,"Central Terminal LRT",,14.5928,120.982,,,0,,0
"LTFRB_4953",,"Carriedo LRT",,14.5991,120.981,,,0,,0
"LTFRB_4954",,"Doroteo Jose LRT",,14.6053,120.982,,,0,,0
"LTFRB_4955",,"Bambang LRT",,14.6109,120.982,,,0,,0
"LTFRB_4956",,"Tayuman LRT",,14.6168,120.983,,,0,,0
"LTFRB_4957",,"Blumentritt LRT",,14.6228,120.983,,,0,,0
"LTFRB_4958",,"Abad Santos LRT",,14.6306,120.982,,,0,,0
"LTFRB_4959",,"R. Papa LRT",,14.636,120.982,,,0,,0
"LTFRB_4960",,"5th Ave LRT ",,14.6444,120.984,,,0,,0
"LTFRB_4961",,"Monumento LRT",,14.6561,120.984,,,0,,0
"LTFRB_4962",,"LRT Balintawak",,14.6574,121.004,,,0,,0
"LTFRB_4963",,"Roosevelt LRT",,14.6575,121.022,,,0,,0
"LTFRB_4977",,"Recto LRT",,14.6035078518,120.9834301472,,,0,,0
"LTFRB_4978",,"Legarda LRT",,14.600777309,120.9924852848,,,0,,0
"LTFRB_4979",,"Pureza LRT",,14.6017324837,121.005038023,,,0,,0
"LTFRB_4980",,"V. Mapa LRT",,14.6042,121.017,,,0,,0
"LTFRB_4981",,"J. Ruiz LRT",,14.6105,121.026,,,0,,0
"LTFRB_4982",,"Gilmore LRT",,14.6136,121.034,,,0,,0
"LTFRB_4983",,"Betty Go Belmonte LRT",,14.6185,121.043,,,0,,0
"LTFRB_4984",,"Cubao LRT",,14.6227,121.053,,,0,,0
"LTFRB_4985",,"Anonas LRT",,14.628,121.065,,,0,,0
"LTFRB_4986",,"Katipunan LRT",,14.631,121.073,,,0,,0
"LTFRB_4987",,"Santolan LRT",,14.6223,121.086,,,0,,0
"LTFRB_1",,"Ang Dating Daan, Balagtas",,14.8237,120.9,,,0,,0
"LTFRB_10",,"Vista Lodge, MacArthur Highway, Balagtas",,14.8131,120.913,,,0,,0
"LTFRB_100",,"Floresco North Mortuary, MacArthur Highway, Caloocan City",,14.6601,120.984,,,0,,0
"LTFRB_1000",,"General Hospital, Commonwealth Avenue, Quezon City",,14.6671,121.073,,,0,,0
"LTFRB_1001",,"Loyola Memorial Chapel, Commonwealth Avenue, Quezon City",,14.6658,121.071,,,0,,0
"LTFRB_1002",,"Commonwealth Avenue, Quezon City",,14.6647,121.07,,,0,,0
"LTFRB_1003",,"St Peter Chapels, Commonwealth Avenue, Quezon City",,14.6631,121.067,,,0,,0
"LTFRB_1004",,"Commonwealth Avenue / Central Avenue Intersection, Quezon City",,14.6617,121.065,,,0,,0
"LTFRB_1005",,"Social Science Institute, Commonwealth Avenue, Quezon City",,14.6605,121.063,,,0,,0
"LTFRB_1006",,"Commonwealth Avenue, Quezon City",,14.6589,121.061,,,0,,0
"LTFRB_1007",,"University of The Phillippines - Ayala Land Technohub, Commonwealth Avenue, Quezon City",,14.6575,121.059,,,0,,0
"LTFRB_1008",,"University of The Phillippines - Ayala Land Technohub, Commonwealth Avenue, Quezon City",,14.6563,121.057,,,0,,0
"LTFRB_1009",,"Commonwealth Avenue / University Avenue Intersection, Quezon City",,14.6547,121.055,,,0,,0
"LTFRB_101",,"Bonifacio Market, MacArthur Highway, Caloocan City",,14.6576,120.984,,,0,,0
"LTFRB_1010",,"Philippine Coconut Authority, Commonwealth Avenue, Quezon City",,14.6536,121.053,,,0,,0
"LTFRB_1011",,"Elliptical Rd / Commonwealth Avenue Intersection, Quezon City",,14.6527,121.052,,,0,,0
"LTFRB_1012",,"Agricultural Training Institute, Elliptical Rd, Quezon City",,14.6543,121.049,,,0,,0
"LTFRB_1013",,"Bureau of Soil And Water Management, Elliptical Rd, Quezon City",,14.6535,121.047,,,0,,0
"LTFRB_1014",,"Elliptical Rd / North Avenue Intersection, Quezon City",,14.6514,121.047,,,0,,0
"LTFRB_1015",,"Dept. of Env & Natural Resources, Visayas Ave, Quezon City",,14.6557,121.047,,,0,,0
"LTFRB_1016",,"Visayas Avenue / Lands Intersection, Quezon City",,14.6577,121.046,,,0,,0
"LTFRB_1017",,"Visayas Avenue / Road 1 Intersection, Quezon City",,14.6597,121.045,,,0,,0
"LTFRB_1018",,"Visayas Avenue / Road 1 Intersection, Quezon City",,14.6616,121.044,,,0,,0
"LTFRB_1019",,"Visayas Avenue Quezon City",,14.6642,121.044,,,0,,0
"LTFRB_102",,"Monumento, Rizal Avenue, Caloocan City",,14.6564,120.984,,,0,,0
"LTFRB_1020",,"Visayas Avenue / A. Limqueco Intersection, Quezon City",,14.6667,121.043,,,0,,0
"LTFRB_1021",,"Visayas Avenue / Windgate Intersection, Quezon City",,14.6687,121.043,,,0,,0
"LTFRB_1022",,"Capitol Allied Trading, Visayas Ave, Quezon City",,14.6704,121.043,,,0,,0
"LTFRB_1023",,"Visayas Avenue Quezon City",,14.6736,121.044,,,0,,0
"LTFRB_1024",,"Visayas Avenue Wet and Dry Market, Visayas Avenue Quezon City",,14.6753,121.044,,,0,,0
"LTFRB_1025",,"City Plaza, Tandang Sora, Quezon City",,14.6758,121.045,,,0,,0
"LTFRB_1026",,"Tandang Sora / Himlayan Road Intersection, Quezon City",,14.6745,121.047,,,0,,0
"LTFRB_1027",,"Tandang Sora / Congressional Avenue Extension Intersection, Quezon City",,14.6733,121.049,,,0,,0
"LTFRB_1028",,"Congressional Avenue Extension, Quezon City",,14.6737,121.051,,,0,,0
"LTFRB_1029",,"Tandang Sora, Quezon City",,14.6725,121.05,,,0,,0
"LTFRB_103",,"MacDonalds, Rizal Avenue, Caloocan City",,14.6538,120.984,,,0,,0
"LTFRB_1030",,"Tandang Sora, Quezon City",,14.6713,121.051,,,0,,0
"LTFRB_1031",,"Tandang Sora, Quezon City",,14.6703,121.052,,,0,,0
"LTFRB_1032",,"Casanova Drive / Tandang Sora Intersection, Quezon City",,14.6692,121.054,,,0,,0
"LTFRB_1033",,"Culiat High School, Tandang Sora, Quezon City",,14.668,121.056,,,0,,0
"LTFRB_1034",,"New Era High School, Tandang Sora, Quezon City",,14.6674,121.059,,,0,,0
"LTFRB_1035",,"Tandang Sora / Manguiat Intersection, Quezon City",,14.6668,121.061,,,0,,0
"LTFRB_1036",,"Tandang Sora, Quezon City",,14.6659,121.063,,,0,,0
"LTFRB_1037",,"EastWest Bank, Tandang Sora, Quezon City",,14.6655,121.065,,,0,,0
"LTFRB_1038",,"Tandang Sora / Demetria Reynaldo Intersection, Quezon City",,14.6645,121.067,,,0,,0
"LTFRB_1039",,"Congressional Avenue Extension, Quezon City",,14.6729,121.048,,,0,,0
"LTFRB_104",,"Ever Gotesco Grand Central, Rizal Avenue, Caloocan City",,14.6556,120.984,,,0,,0
"LTFRB_1040",,"Congressional Avenue Extension, Quezon City",,14.6725,121.046,,,0,,0
"LTFRB_1041",,"Visayas Avenue / Congressional Avenue Extension, Quezon City",,14.6721,121.044,,,0,,0
"LTFRB_1042",,"Quirino Highway, Quezon City",,14.7185,121.04,,,0,,0
"LTFRB_1043",,"Novaliches Elementary School, Quirino Highway, Quezon City",,14.7168,121.04,,,0,,0
"LTFRB_1044",,"Quirino Highway, Quezon City",,14.7151,121.04,,,0,,0
"LTFRB_1045",,"Quirino Highway, Quezon City",,14.7135,121.04,,,0,,0
"LTFRB_1046",,"Quirino Highway / Villaflor Intersection, Quezon City",,14.7119,121.04,,,0,,0
"LTFRB_1047",,"Quirino Highway / Premiere Street Intersection, Quezon City",,14.7101,121.039,,,0,,0
"LTFRB_1048",,"SM Cinema,Quirino Highway, Quezon City",,14.7082,121.039,,,0,,0
"LTFRB_1049",,"St John of Beverly, Quirino Highway, Quezon City",,14.7058,121.038,,,0,,0
"LTFRB_105",,"Rizal Avenue / Asistio Intersection, Caloocan City",,14.6516,120.984,,,0,,0
"LTFRB_1050",,"Quirino Highway / Rockville Avenue Intersection, Quezon City",,14.7013,121.035,,,0,,0
"LTFRB_1051",,"Quirino Highway / Evangelista Intersection, Quezon City",,14.7036,121.037,,,0,,0
"LTFRB_1052",,"Quirino Highway / T. Urbano Intersection, Quezon City",,14.699,121.034,,,0,,0
"LTFRB_1053",,"Quirino Highway / T. Carreon Intersection, Quezon City",,14.6966,121.032,,,0,,0
"LTFRB_1054",,"Quirino Highway / Goodwill Homes 2 Intersection, Quezon City",,14.695,121.031,,,0,,0
"LTFRB_1055",,"Quirino Highway, Quezon City",,14.6932,121.03,,,0,,0
"LTFRB_1056",,"Quirino Highway, Quezon City",,14.6918,121.029,,,0,,0
"LTFRB_1057",,"Quirino Highway / Mindanao Avenue Intersection, Quezon City",,14.6903,121.028,,,0,,0
"LTFRB_1058",,"Pacific Global Hospital, Mindanao Avenue, Quezon City",,14.6888,121.03,,,0,,0
"LTFRB_1059",,"Mindanao Avenue, Quezon City",,14.6866,121.032,,,0,,0
"LTFRB_1060",,"Mindanao Avenue / Don Vicente Intersection, Quezon City",,14.6838,121.032,,,0,,0
"LTFRB_1061",,"Mindanao Avenue, Quezon City",,14.6814,121.032,,,0,,0
"LTFRB_1062",,"Mindanao Avenue, Quezon City",,14.6792,121.032,,,0,,0
"LTFRB_1063",,"Mindanao Avenue / Tanding Sora Avenue Intersection, Quezon City",,14.6773,121.035,,,0,,0
"LTFRB_1064",,"Mindanao Avenue, Quezon City",,14.6747,121.032,,,0,,0
"LTFRB_1065",,"Mindanao Avenue, Quezon City",,14.6727,121.032,,,0,,0
"LTFRB_1066",,"Mindanao Avenue, Quezon City",,14.6705,121.032,,,0,,0
"LTFRB_1067",,"Mindanao Avenue, Quezon City",,14.6684,121.033,,,0,,0
"LTFRB_1068",,"Mindanao Avenue, Quezon City",,14.6669,121.035,,,0,,0
"LTFRB_1069",,"Mindanao Avenue, Quezon City",,14.6653,121.036,,,0,,0
"LTFRB_107",,"Asia Trust Bank, Rizal Avenue, Caloocan City",,14.6462,120.984,,,0,,0
"LTFRB_1070",,"Mindanao Avenue / Road 16 Intersection, Quezon City",,14.6637,121.036,,,0,,0
"LTFRB_1071",,"Mindanao Avenue, Quezon City",,14.6619,121.037,,,0,,0
"LTFRB_1072",,"Mindanao Avenue / Road 10 Intersection, Quezon City",,14.6604,121.036,,,0,,0
"LTFRB_1073",,"Mindanao Avenue, Quezon City",,14.6586,121.036,,,0,,0
"LTFRB_1074",,"Mindanao Avenue, Quezon City",,14.6571,121.036,,,0,,0
"LTFRB_1075",,"Mindanao Avenue, Quezon City",,14.6557,121.035,,,0,,0
"LTFRB_1076",,"North Avenue, Quezon City",,14.6542,121.036,,,0,,0
"LTFRB_1077",,"SM Hypermarket, North Avenue, Quezon City",,14.6548,121.034,,,0,,0
"LTFRB_1078",,"Veterans Memorial Medical Centre, North Avenue, Quezon City",,14.6537,121.039,,,0,,0
"LTFRB_1079",,"Veterans Memorial Medical Centre, North Avenue, Quezon City",,14.6531,121.041,,,0,,0
"LTFRB_1080",,"Philippine Sugar Authority, North Avenue, Quezon City",,14.6526,121.044,,,0,,0
"LTFRB_1081",,"North Avenue, Quezon City",,14.6522,121.046,,,0,,0
"LTFRB_1082",,"Amianan Motors Office, Road 1, Quezon City",,14.6608,121.038,,,0,,0
"LTFRB_1083",,"Road 1 / A27 Intersection Quezon City",,14.6605,121.039,,,0,,0
"LTFRB_1084",,"Road 1 / Road 9 Intersection Quezon City",,14.6601,121.041,,,0,,0
"LTFRB_1085",,"Road 1 / A8A Intersection Quezon City",,14.6597,121.043,,,0,,0
"LTFRB_1086",,"Road 3 / A 16 Intersection Quezon City",,14.6633,121.043,,,0,,0
"LTFRB_1087",,"Road 3, Quezon City",,14.6643,121.042,,,0,,0
"LTFRB_1088",,"Road 3, Quezon City",,14.6648,121.041,,,0,,0
"LTFRB_1089",,"Road 3, Quezon City",,14.6646,121.04,,,0,,0
"LTFRB_109",,"Banco De Oro, Rizal Avenue, Caloocan City",,14.6412,120.984,,,0,,0
"LTFRB_1090",,"Road 3 / Road 5 Intersection, Quezon City",,14.6644,121.038,,,0,,0
"LTFRB_1091",,"Emensto Rondon High School, Road 3, Quezon City",,14.6641,121.037,,,0,,0
"LTFRB_1092",,"Congressional Avenue, Quezon City",,14.6691,121.035,,,0,,0
"LTFRB_1093",,"Congressional Avenue / Jupiter Intersection, Quezon City",,14.6705,121.037,,,0,,0
"LTFRB_1094",,"Cherry Foodarama, Congressional Avenue, Quezon City",,14.6711,121.039,,,0,,0
"LTFRB_1095",,"Starbucks, Congressional Avenue, Quezon City",,14.6715,121.041,,,0,,0
"LTFRB_1096",,"Life Value Clinic, Congressional Avenue, Quezon City",,14.6768,121.034,,,0,,0
"LTFRB_1097",,"Congressional Avenue / Banlat Road Intersection, Quezon City",,14.6768,121.035,,,0,,0
"LTFRB_1098",,"Congressional Avenue / Dona Sotera Intersection, Quezon City",,14.6765,121.037,,,0,,0
"LTFRB_1099",,"Congressional Avenue, Quezon City",,14.6769,121.04,,,0,,0
"LTFRB_11",,"Our Lady Manaoag College/ ELCO Lumber Corp., MacArthur Highway, Balagtas",,14.8116,120.914,,,0,,0
"LTFRB_110",,"Baliwag Transit Bus Station, Rizal Avenue, Caloocan City",,14.64,120.984,,,0,,0
"LTFRB_1100",,"Congressional Avenue, Quezon City",,14.6766,121.042,,,0,,0
"LTFRB_1101",,"Congressional Avenue / Golden Intersection, Quezon City",,14.6763,121.043,,,0,,0
"LTFRB_1102",,"Congressional Avenue / San Miguel Intersection, Quezon City",,14.6762,121.046,,,0,,0
"LTFRB_1103",,"Himlayan Road / Drakar Intersection, Quezon City",,14.6772,121.046,,,0,,0
"LTFRB_1104",,"Himlayan Road / Cartier Intersection, Quezon City",,14.6789,121.046,,,0,,0
"LTFRB_1105",,"Himlayan Road / Banlat Road Intersection, Quezon City",,14.6806,121.047,,,0,,0
"LTFRB_1106",,"Banlat Road / Ambuklao Intersection, Quezon City",,14.6827,121.046,,,0,,0
"LTFRB_1107",,"Ambuklao, Quezon City",,14.6839,121.047,,,0,,0
"LTFRB_1108",,"Ambuklao, Quezon City",,14.685,121.048,,,0,,0
"LTFRB_1109",,"Ambuklao / Loboc Intersection, Quezon City",,14.6861,121.048,,,0,,0
"LTFRB_111",,"Rizal Avenue / Road 1 Intersection, Caloocan City",,14.6374,120.983,,,0,,0
"LTFRB_1110",,"Binga, Quezon City",,14.6863,121.05,,,0,,0
"LTFRB_1111",,"Kalayaan, Quezon City",,14.6874,121.051,,,0,,0
"LTFRB_1112",,"Kalayaan / Jacinto Roque, Quezon City",,14.6888,121.051,,,0,,0
"LTFRB_1113",,"Kalayaan, Quezon City",,14.6903,121.051,,,0,,0
"LTFRB_1114",,"NIA Chapel, Chico, Quezon City",,14.6916,121.049,,,0,,0
"LTFRB_1115",,"Sauyo High School Extension, Pantabangan, Quezon City",,14.691,121.048,,,0,,0
"LTFRB_1116",,"North Luzon Expressway, Valenzuela City",,14.7069,120.994,,,0,,0
"LTFRB_1117",,"North Luzon Expressway / Santiago Street Intersection, Valenzuela City",,14.7049,120.995,,,0,,0
"LTFRB_1118",,"North Luzon Expressway, Valenzuela City",,14.7033,120.996,,,0,,0
"LTFRB_1119",,"North Luzon Expressway, Valenzuela City",,14.7013,120.997,,,0,,0
"LTFRB_112",,"LRT Papa Station, Rizal  Avenue, Caloocan City",,14.6362,120.982,,,0,,0
"LTFRB_1120",,"North Luzon Expressway, Valenzuela City",,14.6995,120.998,,,0,,0
"LTFRB_1121",,"North Luzon Expressway, Valenzuela City",,14.6975,120.999,,,0,,0
"LTFRB_1122",,"North Luzon Expressway, Valenzuela City",,14.6954,121,,,0,,0
"LTFRB_1123",,"North Luzon Expressway / Mindanao Avenue, Valenzuela City",,14.6932,121,,,0,,0
"LTFRB_1124",,"North Luzon Expressway, Valenzuela City",,14.6911,121.001,,,0,,0
"LTFRB_1125",,"North Luzon Expressway, Valenzuela City",,14.6891,121.001,,,0,,0
"LTFRB_1126",,"North Luzon Expressway, Valenzuela City",,14.6871,121.001,,,0,,0
"LTFRB_1127",,"North Luzon Expressway, Valenzuela City",,14.6853,121.001,,,0,,0
"LTFRB_1128",,"North Luzon Expressway, Valenzuela City",,14.6839,121.001,,,0,,0
"LTFRB_1129",,"North Luzon Expressway, Valenzuela City",,14.682,121.001,,,0,,0
"LTFRB_113",,"Rizal Avenue / Jose Abad Santos Avenue Interchange, Caloocan City",,14.632,120.981,,,0,,0
"LTFRB_1130",,"North Luzon Expressway, Valenzuela City",,14.6801,121.001,,,0,,0
"LTFRB_1131",,"North Luzon Expressway near NLEX Complex, Caloocan City",,14.6779,121,,,0,,0
"LTFRB_1132",,"North Luzon Expressway, Caloocan City",,14.6758,121.001,,,0,,0
"LTFRB_1133",,"North Luzon Expressway near Libis Baesa Exit, Caloocan City",,14.6737,121.001,,,0,,0
"LTFRB_1134",,"North Luzon Expressway, Caloocan City",,14.6718,121.001,,,0,,0
"LTFRB_1135",,"North Luzon Expressway near Eternal Gardens Memorial Park, Caloocan City",,14.67,121,,,0,,0
"LTFRB_1136",,"North Luzon Expressway, Caloocan City",,14.6682,121,,,0,,0
"LTFRB_1137",,"North Luzon Expressway, Caloocan City",,14.6663,121,,,0,,0
"LTFRB_1138",,"North Luzon Expressway, Caloocan City",,14.6641,121,,,0,,0
"LTFRB_1139",,"North Luzon Expressway near Bonifacio Memorial Elementary School, Caloocan City",,14.6591,121,,,0,,0
"LTFRB_114",,"Governor Fortunato Halili Avenue, Bocaue",,14.7994,120.931,,,0,,0
"LTFRB_1140",,"North Luzon Expressway / Epifanio de los Santos Avenue Intersection, Caloocan City",,14.6573,121,,,0,,0
"LTFRB_1141",,"Malabon / Milagrosa Intersection, Caloocan City",,14.6687,120.997,,,0,,0
"LTFRB_1142",,"Malabon / Makaneneng Intersection, Caloocan City",,14.6692,120.998,,,0,,0
"LTFRB_1143",,"Malolos Avenue / Makaneneng Intersection, Caloocan City",,14.6672,121,,,0,,0
"LTFRB_1144",,"Malolos Avenue / Milagrosa Intersection, Caloocan City",,14.6662,120.999,,,0,,0
"LTFRB_1145",,"Miracle / Milagrosa Intersection, Caloocan City",,14.6674,120.997,,,0,,0
"LTFRB_1146",,"Malolos Avenue, Caloocan City",,14.6649,120.997,,,0,,0
"LTFRB_1147",,"Malolos Avenue / General Tirona Intersection, Caloocan City",,14.6639,120.996,,,0,,0
"LTFRB_1148",,"General Tirona Intersection, Caloocan City",,14.662,120.997,,,0,,0
"LTFRB_1149",,"Gregoria de Jesus, Caloocan City",,14.6597,120.998,,,0,,0
"LTFRB_115",,"Governor Fortunato Halili Avenue, Bocaue",,14.8017,120.933,,,0,,0
"LTFRB_1150",,"General Tirona Intersection, Caloocan City",,14.6583,120.997,,,0,,0
"LTFRB_1151",,"Epifanio de los Santos Avenue, Caloocan City",,14.6573,120.998,,,0,,0
"LTFRB_1152",,"Epifanio de los Santos Avenue / General Evangelista , Caloocan City",,14.6573,120.996,,,0,,0
"LTFRB_1153",,"Epifanio de los Santos Avenue / Gen Malvar Intersection , Caloocan City",,14.6573,120.993,,,0,,0
"LTFRB_1154",,"Epifanio de los Santos Avenue / 8th Street Intersection , Caloocan City",,14.6572,120.99,,,0,,0
"LTFRB_1155",,"Epifanio de los Santos Avenue / 5th Street Intersection , Caloocan City",,14.6573,120.988,,,0,,0
"LTFRB_1156",,"Epifanio de los Santos Avenue / General Rosendo Simon Intersection , Caloocan City",,14.6572,120.986,,,0,,0
"LTFRB_1157",,"L Bustamante / Benin Intersection, Caloocan City",,14.656,120.985,,,0,,0
"LTFRB_1158",,"2nd Street / 12th Avenue, Caloocan City",,14.6544,120.986,,,0,,0
"LTFRB_1159",,"5th Street / 12th Avenue Intersection, Caloocan City",,14.6542,120.988,,,0,,0
"LTFRB_116",,"Academia de Sta. Cruz,Governor Fortunato Halili Avenue, Bocaue",,14.805,120.935,,,0,,0
"LTFRB_1160",,"5th Street / Macbagdal Intersection, Caloocan City",,14.6557,120.988,,,0,,0
"LTFRB_1161",,"8th Avenue / Macbagdal Intersection, Caloocan City",,14.6557,120.99,,,0,,0
"LTFRB_1162",,"12th Street / 8th Avenue, Caloocan City",,14.6542,120.99,,,0,,0
"LTFRB_1163",,"5th Street / 10th Avenue, Caloocan City",,14.6514,120.988,,,0,,0
"LTFRB_1164",,"2nd Street / 10th Avenue, Caloocan City",,14.6515,120.986,,,0,,0
"LTFRB_1165",,"8th Street / 10th Avenue, Caloocan City",,14.6513,120.99,,,0,,0
"LTFRB_1166",,"11th Steet / 10th Avenue, Caloocan City",,14.6513,120.993,,,0,,0
"LTFRB_1167",,"Kamantigue / 10th Avenue, Caloocan City",,14.6512,120.995,,,0,,0
"LTFRB_1168",,"Kamantigue / 11th Avenue, Caloocan City",,14.6526,120.995,,,0,,0
"LTFRB_1169",,"Quirino Highway, Quezon City",,14.6625,121.001,,,0,,0
"LTFRB_117",,"Truo Elementary School, Governor Fortunato Halili Avenue, Bocaue",,14.8066,120.938,,,0,,0
"LTFRB_1170",,"Quirino Highway / S Gonzales Drive Intersection, Quezon City",,14.664,121.003,,,0,,0
"LTFRB_1171",,"Quirino Highway near Maximina Intersection, Quezon City",,14.6648,121.004,,,0,,0
"LTFRB_1172",,"Quirino Highway / Francisco Intersection, Quezon City",,14.6655,121.006,,,0,,0
"LTFRB_1173",,"Quirino Highway / 127 Interior Intersection, Quezon City",,14.6667,121.007,,,0,,0
"LTFRB_1174",,"Quirino Highway, Quezon City",,14.6683,121.009,,,0,,0
"LTFRB_1175",,"Pascual Memorial Elementary School, Quirino Highway, Quezon City",,14.6697,121.01,,,0,,0
"LTFRB_1176",,"Baesa Road, Quirino Highway, Quezon City",,14.6682,121.007,,,0,,0
"LTFRB_1177",,"Baesa Road / Faith Intersection, Quirino Highway, Quezon City",,14.6699,121.006,,,0,,0
"LTFRB_1178",,"Baesa Road, Quirino Highway, Quezon City",,14.6716,121.006,,,0,,0
"LTFRB_1179",,"Baesa Road, Quirino Highway, Quezon City",,14.6732,121.005,,,0,,0
"LTFRB_118",,"Truo FX Terminal, Governor Fortunato Halili Avenue, Bocaue",,14.8073,120.94,,,0,,0
"LTFRB_1180",,"Baesa Road, Quirino Highway, Quezon City",,14.6744,121.005,,,0,,0
"LTFRB_1181",,"Baesa Road / Reparo Road Intersection, Quirino Highway, Quezon City",,14.6756,121.004,,,0,,0
"LTFRB_1182",,"General Hospital, Baesa Road, Quirino Highway, Quezon City",,14.6769,121.005,,,0,,0
"LTFRB_1183",,"Baesa Educational Foundation, Baesa Road, Quirino Highway, Quezon City",,14.6777,121.006,,,0,,0
"LTFRB_1184",,"Baesa Road / Aquino Street Intersection, Quirino Highway, Quezon City",,14.6783,121.007,,,0,,0
"LTFRB_1185",,"Baesa Road / Julieta Street Intersection, Quirino Highway, Quezon City",,14.6789,121.007,,,0,,0
"LTFRB_1186",,"Baesa Road / Barnachea Compund Intersection, Quirino Highway, Quezon City",,14.6794,121.008,,,0,,0
"LTFRB_1187",,"Immaculate Mother Learning Center, Baesa Road, Quirino Highway, Quezon City",,14.6802,121.009,,,0,,0
"LTFRB_1188",,"Baesa Road / Roxas Intersection, Quirino Highway, Quezon City",,14.6807,121.009,,,0,,0
"LTFRB_1189",,"Roxas, Quirino Highway, Quezon City",,14.6797,121.01,,,0,,0
"LTFRB_119",,"Shell Fuel Station, Governor Fortunato Halili Avenue, Bocaue",,14.808,120.943,,,0,,0
"LTFRB_1190",,"Roxas, Quirino Highway, Quezon City",,14.6786,121.01,,,0,,0
"LTFRB_1191",,"St Francis of Assisi Parish Church, Roxas, Quirino Highway, Quezon City",,14.6814,121.01,,,0,,0
"LTFRB_1192",,"Quirino Highway / Masagana Intersection, Quezon City",,14.6712,121.011,,,0,,0
"LTFRB_1193",,"Baesa Town Centre, Quirino Highway, Quezon City",,14.673,121.013,,,0,,0
"LTFRB_1194",,"Baesa Cemetary, Quirino Highway, Quezon City",,14.6742,121.014,,,0,,0
"LTFRB_1195",,"Quirino Highway / Rodriguez Drive Intersection, Quezon City",,14.6755,121.015,,,0,,0
"LTFRB_1196",,"Inglesia ni Cristo, Quirino Highway, Quezon City",,14.677,121.016,,,0,,0
"LTFRB_1197",,"Quirino Highway / Vipra Intersection, Quezon City",,14.679,121.018,,,0,,0
"LTFRB_1198",,"Chowking, Quirino Highway, Quezon City",,14.6805,121.019,,,0,,0
"LTFRB_1199",,"SM Supermarket, Quirino Highway, Quezon City",,14.6823,121.021,,,0,,0
"LTFRB_12",,"Krusas Wawa Memorial Park, MacArthur Highway, Balagtas",,14.8081,120.917,,,0,,0
"LTFRB_120",,"Bulacan Medical Misson Group Cooperative Hospital, Governor  Fortunato Halili Avenue, Bocaue",,14.8083,120.945,,,0,,0
"LTFRB_1200",,"Quirino Highway / Kalapati Intersection, Quezon City",,14.6837,121.022,,,0,,0
"LTFRB_1201",,"Quirino Highway, Quezon City",,14.685,121.023,,,0,,0
"LTFRB_1202",,"Quirino Highway, Quezon City",,14.6864,121.024,,,0,,0
"LTFRB_1203",,"Quirino Highway, Quezon City",,14.688,121.026,,,0,,0
"LTFRB_1204",,"MAN Bus and Trucks, Quirino Highway, Quezon City",,14.6891,121.026,,,0,,0
"LTFRB_1205",,"Tanding Sora Avenue, Quezon City",,14.6798,121.021,,,0,,0
"LTFRB_1206",,"Tanding Sora Avenue, Quezon City",,14.6795,121.023,,,0,,0
"LTFRB_1207",,"Tanding Sora Avenue, Quezon City",,14.6791,121.025,,,0,,0
"LTFRB_1208",,"Jetti Petrol Station, Tanding Sora Avenue, Quezon City",,14.6788,121.027,,,0,,0
"LTFRB_1209",,"Tanding Sora Avenue / University Lane Intersection, Quezon City",,14.6782,121.029,,,0,,0
"LTFRB_121",,"Mateo's Diagnostic Clinic & General Hospital, Governor Fortunato Halili Avenue, Bocaue",,14.8097,120.947,,,0,,0
"LTFRB_1210",,"St James College, Tanding Sora Avenue, Quezon City",,14.6775,121.031,,,0,,0
"LTFRB_1211",,"General Avenue, Quezon City",,14.6776,121.026,,,0,,0
"LTFRB_1212",,"General Avenue / Gsisea Street Intersection, Quezon City",,14.6762,121.026,,,0,,0
"LTFRB_1213",,"General Avenue / Molave Intersection, Quezon City",,14.6745,121.026,,,0,,0
"LTFRB_1214",,"General Avenue / Assistant Branchesntersection, Quezon City",,14.6731,121.025,,,0,,0
"LTFRB_1215",,"Assistant / Engineering, Quezon City",,14.6752,121.023,,,0,,0
"LTFRB_1216",,"Engineering / Manager Intersection, Quezon City",,14.6739,121.023,,,0,,0
"LTFRB_1217",,"Engineering / Legal Intersection, Quezon City",,14.6721,121.023,,,0,,0
"LTFRB_1218",,"St Mary / Benfits, Quezon City",,14.6726,121.021,,,0,,0
"LTFRB_1219",,"Daisol, Quezon City",,14.6732,121.022,,,0,,0
"LTFRB_122",,"Green Pond Chinese Resturant, Governor Fortunato Halili Avenue, Bocaue",,14.8116,120.948,,,0,,0
"LTFRB_1220",,"Benefits / GSIS Avenue, Quezon City",,14.6721,121.018,,,0,,0
"LTFRB_1221",,"Grant, Quezon City",,14.6713,121.02,,,0,,0
"LTFRB_1222",,"Shorhorn, Quezon City",,14.6694,121.02,,,0,,0
"LTFRB_1223",,"Assistant, Quezon City",,14.6739,121.024,,,0,,0
"LTFRB_1224",,"Shorhorn, Quezon City",,14.6676,121.021,,,0,,0
"LTFRB_1225",,"Shorhorn, Quezon City",,14.6659,121.022,,,0,,0
"LTFRB_1226",,"Shorhorn / Congressional Avenue, Quezon City",,14.6636,121.022,,,0,,0
"LTFRB_1227",,"Town and Country Gardenville, Congressional Avenue, Quezon City",,14.6665,121.032,,,0,,0
"LTFRB_1228",,"Congressional Avenue, Quezon City",,14.6658,121.031,,,0,,0
"LTFRB_1229",,"Congressional Avenue, Quezon City",,14.6652,121.028,,,0,,0
"LTFRB_123",,"New Bypass Road, Santa Maria",,14.8096,120.95,,,0,,0
"LTFRB_1230",,"Congressional Avenue, Quezon City",,14.6645,121.025,,,0,,0
"LTFRB_1231",,"Congressional Avenue, Quezon City",,14.6677,121.034,,,0,,0
"LTFRB_1232",,"Congressional Avenue, Quezon City",,14.6625,121.02,,,0,,0
"LTFRB_1233",,"Congressional Avenue / Cagayan Intersection Quezon City",,14.6607,121.02,,,0,,0
"LTFRB_1234",,"Congressional Avenue / Abra Intersection Quezon City",,14.6588,121.02,,,0,,0
"LTFRB_1235",,"Epifanio de los Santos Avenue / Congressional Avenue Intersection, Quezon City",,14.6576,121.02,,,0,,0
"LTFRB_1236",,"Epifanio de los Santos Avenue, Quezon City",,14.6575,121.018,,,0,,0
"LTFRB_1237",,"Epifanio de los Santos Avenue, Quezon City",,14.6575,121.017,,,0,,0
"LTFRB_1238",,"Epifanio de los Santos Avenue, Quezon City",,14.6575,121.014,,,0,,0
"LTFRB_1239",,"Epifanio de los Santos Avenue near Walter Mart Service Road, Quezon City",,14.6574,121.022,,,0,,0
"LTFRB_124",,"New Bypass Road, Santa Maria",,14.81,120.953,,,0,,0
"LTFRB_1240",,"FHELSEN, Epifanio de los Santos Avenue, Quezon City",,14.657,121.023,,,0,,0
"LTFRB_1241",,"Phoenix, Epifanio de los Santos Avenue, Quezon City",,14.6565,121.026,,,0,,0
"LTFRB_1242",,"Epifanio de los Santos Avenue / Bansalangin Intersection, Quezon City",,14.6561,121.027,,,0,,0
"LTFRB_1243",,"Epifanio de los Santos Avenue / Bulacan Intersection, Quezon City",,14.6556,121.029,,,0,,0
"LTFRB_1244",,"Epifanio de los Santos Avenue / North Avenue Intersection, Quezon City",,14.6554,121.031,,,0,,0
"LTFRB_1245",,"Dangay, Quezon City",,14.6568,121.019,,,0,,0
"LTFRB_1246",,"Dangay / Lanutan Intersection, Quezon City",,14.6563,121.022,,,0,,0
"LTFRB_1247",,"Dangay / Bansalangin Intersection, Quezon City",,14.6558,121.024,,,0,,0
"LTFRB_1248",,"Dangay / Bansalangin Intersection, Quezon City",,14.6551,121.027,,,0,,0
"LTFRB_1249",,"Calumpit / Bansalangin Intersection, Quezon City",,14.6541,121.027,,,0,,0
"LTFRB_125",,"Dental Clinic, New Bypass Road, Santa Maria",,14.8121,120.956,,,0,,0
"LTFRB_1250",,"Bansalangin Intersection, Quezon City",,14.6531,121.026,,,0,,0
"LTFRB_1251",,"Kalamansanay / Bansalangin Intersection, Quezon City",,14.653,121.025,,,0,,0
"LTFRB_1252",,"Bansalangin, Quezon City",,14.6539,121.024,,,0,,0
"LTFRB_1253",,"Calumpit / Bansalangin Intersection, Quezon City",,14.655,121.023,,,0,,0
"LTFRB_1254",,"Bulacan, Quezon City",,14.6539,121.029,,,0,,0
"LTFRB_1255",,"Bulacan, Quezon City",,14.6524,121.028,,,0,,0
"LTFRB_1256",,"Bulacan, Quezon City",,14.6509,121.029,,,0,,0
"LTFRB_1257",,"West Avenue, Quezon City",,14.6518,121.029,,,0,,0
"LTFRB_1258",,"West Avenue, Quezon City",,14.6542,121.03,,,0,,0
"LTFRB_1259",,"Epifanio de los Santos Avenue, Quezon City",,14.6536,121.032,,,0,,0
"LTFRB_126",,"New Bypass Road, Santa Maria",,14.8149,120.957,,,0,,0
"LTFRB_1260",,"Epifanio de los Santos Avenue, Quezon City",,14.6522,121.032,,,0,,0
"LTFRB_1261",,"Epifanio de los Santos Avenue / Trinoma Access Road, Quezon City",,14.6505,121.034,,,0,,0
"LTFRB_1262",,"Epifanio de los Santos Avenue, Quezon City",,14.6495,121.034,,,0,,0
"LTFRB_1263",,"Old Samson Road, Quezon City",,14.6566,121.006,,,0,,0
"LTFRB_1264",,"Old Samson Road, Quezon City",,14.6565,121.007,,,0,,0
"LTFRB_1265",,"Old Samson Road, Quezon City",,14.6563,121.009,,,0,,0
"LTFRB_1266",,"Old Samson Road, Quezon City",,14.6559,121.01,,,0,,0
"LTFRB_1267",,"Old Samson Road / Kaingin Road Intersection, Quezon City",,14.6555,121.012,,,0,,0
"LTFRB_1268",,"Kaingin Road, Quezon City",,14.6542,121.011,,,0,,0
"LTFRB_1269",,"Kaingin Road, Quezon City",,14.6531,121.01,,,0,,0
"LTFRB_127",,"Antonio's Convenience Store, Governor Fortunato Halili Avenue, Santa Maria",,14.8174,120.958,,,0,,0
"LTFRB_1270",,"Kaingin Road, Quezon City",,14.6518,121.01,,,0,,0
"LTFRB_1271",,"Kaingin Road, Quezon City",,14.6505,121.01,,,0,,0
"LTFRB_1272",,"Kaingin Road, Quezon City",,14.6486,121.01,,,0,,0
"LTFRB_1273",,"Kaingin Road, Quezon City",,14.6474,121.009,,,0,,0
"LTFRB_1274",,"Kaingin Road, Quezon City",,14.646,121.008,,,0,,0
"LTFRB_1275",,"Tuktukan / Corumi Intersection, Quezon City",,14.6451,121.009,,,0,,0
"LTFRB_1276",,"Gasan / Corumi Intersection, Quezon City",,14.6433,121.009,,,0,,0
"LTFRB_1277",,"Corumi, Quezon City",,14.6421,121.009,,,0,,0
"LTFRB_1278",,"Inaman / Corumi Intersection, Quezon City",,14.6409,121.01,,,0,,0
"LTFRB_1279",,"Del Monte Avenue / Corumi Intersection, Quezon City",,14.6396,121.01,,,0,,0
"LTFRB_128",,"Max's Stamaria, Governor  Fortunato Halili Avenue, Santa Maria",,14.8137,120.949,,,0,,0
"LTFRB_1280",,"Del Monte Avenue / Malac Intersection, Quezon City",,14.6398,121.012,,,0,,0
"LTFRB_1281",,"Del Monte Avenue / Valencia Intersection, Quezon City",,14.64,121.014,,,0,,0
"LTFRB_1282",,"7/11 Del Monte Avenue, Quezon City",,14.6402,121.015,,,0,,0
"LTFRB_1283",,"Del Monte Avenue / Roosevelt Avenue Intersection, Quezon City",,14.6404,121.016,,,0,,0
"LTFRB_1284",,"Jehovah's Witness Watchtower Branch Office, Roosevelt Avenue, Quezon City",,14.6417,121.017,,,0,,0
"LTFRB_1285",,"Jehovah's Witness Watchtower Branch Office, Roosevelt Avenue, Quezon City",,14.6435,121.017,,,0,,0
"LTFRB_1286",,"Roosevelt Avenue / Baler Intersection, Quezon City",,14.6451,121.017,,,0,,0
"LTFRB_1287",,"Roosevelt Avenue / Atty. Pal Senador Sr. Intersection, Quezon City",,14.6468,121.017,,,0,,0
"LTFRB_1288",,"Roosevelt Avenue, Quezon City",,14.6483,121.018,,,0,,0
"LTFRB_1289",,"Roosevelt Avenue, Quezon City",,14.6499,121.018,,,0,,0
"LTFRB_129",,"St Mary's Trading International, Governor Fortunato Halili Avenue, Bocaue",,14.8158,120.951,,,0,,0
"LTFRB_1290",,"Roosevelt Avenue, Quezon City",,14.6514,121.018,,,0,,0
"LTFRB_1291",,"Roosevelt Avenue / De Jesus Intersection, Quezon City",,14.653,121.018,,,0,,0
"LTFRB_1292",,"Roosevelt Avenue / Adams Intersection, Quezon City",,14.6545,121.019,,,0,,0
"LTFRB_1293",,"Roosevelt Avenue / Road B Intersection, Quezon City",,14.6555,121.019,,,0,,0
"LTFRB_1294",,"Del Monte Avenue / Don Ramon Intersection, Quezon City",,14.6393,121.008,,,0,,0
"LTFRB_1295",,"Del Monte Avenue / Araneta Avenue Intersection, Quezon City",,14.6391,121.007,,,0,,0
"LTFRB_1296",,"Del Monte Avenue / Sto. Domingo Intersection, Quezon City",,14.6389,121.005,,,0,,0
"LTFRB_1297",,"Del Monte Avenue / Biak na Bato Intersection, Quezon City",,14.6387,121.003,,,0,,0
"LTFRB_1298",,"Del Monte Avenue / Banawe Intersection, Quezon City",,14.6384,121.001,,,0,,0
"LTFRB_1299",,"Del Monte Avenue / Matutum Intersection, Quezon City",,14.6381,120.998,,,0,,0
"LTFRB_13",,"Yanga's College, MacArthur Highway, Balagtas",,14.8016,120.922,,,0,,0
"LTFRB_130",,"St John the Evangelist Church, Governor Fortunato Halili Avenue, Santa Maria",,14.8173,120.953,,,0,,0
"LTFRB_1300",,"Del Monte Avenue / San Jose D Tuazon Intersection, Quezon City",,14.6378,120.996,,,0,,0
"LTFRB_1301",,"Del Monte Avenue / A. Bonifacio Intersection, Quezon City",,14.6374,120.994,,,0,,0
"LTFRB_1302",,"San Jose D Tuazon, Quezon City",,14.6399,120.996,,,0,,0
"LTFRB_1303",,"San Jose D Tuazon, Quezon City",,14.6419,120.995,,,0,,0
"LTFRB_1304",,"San Jose D Tuazon, Quezon City",,14.6435,120.995,,,0,,0
"LTFRB_1306",,"Tangali / Tinagan Intersection, Quezon City",,14.6423,120.995,,,0,,0
"LTFRB_1307",,"Tinagan, Quezon City",,14.6408,120.995,,,0,,0
"LTFRB_1308",,"Andreas Bonifacio, Quezon City",,14.6389,120.993,,,0,,0
"LTFRB_1309",,"Andreas Bonifacio / Mauban Intersection, Quezon City",,14.6401,120.992,,,0,,0
"LTFRB_131",,"Petron Sta Maria, Governor  Fortunato Halili Avenue, Santa Maria",,14.8175,120.956,,,0,,0
"LTFRB_1310",,"Andreas Bonifacio, Quezon City",,14.6421,120.993,,,0,,0
"LTFRB_1311",,"Andreas Bonifacio / Sgt. Emilio Rivera ntersection, Quezon City",,14.6438,120.994,,,0,,0
"LTFRB_1312",,"Andreas Bonifacio / Bataan Intersection, Quezon City",,14.6452,120.994,,,0,,0
"LTFRB_1313",,"Andreas Bonifacio / Selecta Drive Intersection, Quezon City",,14.648,120.996,,,0,,0
"LTFRB_1314",,"Andreas Bonifacio / Marvex Drive Intersection, Quezon City",,14.6504,120.997,,,0,,0
"LTFRB_1315",,"Andreas Bonifacio, Quezon City",,14.6528,120.998,,,0,,0
"LTFRB_1316",,"Asiawide Refershments Corporation, Andreas Bonifacio, Quezon City",,14.6543,120.999,,,0,,0
"LTFRB_1317",,"Andreas Bonifacio, Quezon City",,14.6556,121,,,0,,0
"LTFRB_1318",,"Andreas Bonifacio, Quezon City",,14.6566,121,,,0,,0
"LTFRB_1319",,"N. S. Amoranto, Quezon City",,14.6358,120.994,,,0,,0
"LTFRB_132",,"Santa Maria General Hospital, JC De Jesus Street, Santa Maria",,14.8183,120.96,,,0,,0
"LTFRB_1320",,"Mayon, Quezon City",,14.6341,120.995,,,0,,0
"LTFRB_1321",,"Mayon, Quezon City",,14.6326,120.995,,,0,,0
"LTFRB_1322",,"Mayon, Quezon City",,14.6307,120.996,,,0,,0
"LTFRB_1323",,"Mayon / Don Manuel Agregado Intersection, Quezon City",,14.6288,120.996,,,0,,0
"LTFRB_1324",,"Mayon / Calamba Intersection, Quezon City",,14.6276,120.997,,,0,,0
"LTFRB_1325",,"Mayon, Quezon City",,14.6257,120.998,,,0,,0
"LTFRB_1326",,"Mayon, Quezon City",,14.6239,120.999,,,0,,0
"LTFRB_1327",,"Community Centre, San Isidro Labrador, Quezon City",,14.6226,120.999,,,0,,0
"LTFRB_1328",,"Dapitan / Kanlaon Intersection, Quezon City",,14.6223,121,,,0,,0
"LTFRB_133",,"Santa Maria Municipal Hall, JC De Jesus Street, Santa Maria",,14.8193,120.96,,,0,,0
"LTFRB_1330",,"Apo, Quezon City",,14.6211,121.002,,,0,,0
"LTFRB_1331",,"Apo / Quezon Avenue Intersection, Quezon City",,14.619,121.003,,,0,,0
"LTFRB_1332",,"Kanlaon, Quezon City",,14.6192,121.002,,,0,,0
"LTFRB_1333",,"Kanlaon, Quezon City",,14.6208,121.001,,,0,,0
"LTFRB_1334",,"Quezon Avenue / D Tuazon Intersection, Quezon City",,14.6202,121.004,,,0,,0
"LTFRB_1335",,"D Tuazon Intersection, Quezon City",,14.6217,121.004,,,0,,0
"LTFRB_1336",,"D Tuazon / Daptian Intersection, Quezon City",,14.6234,121.003,,,0,,0
"LTFRB_1337",,"D Tuazon / N. Roxas Intersection, Quezon City",,14.6248,121.002,,,0,,0
"LTFRB_1338",,"D Tuazon, Quezon City",,14.6262,121.001,,,0,,0
"LTFRB_1339",,"D Tuazon, Quezon City",,14.6281,121,,,0,,0
"LTFRB_134",,"A. Fernando Elementary School, M H Del Pilar, Malanday, Valenzuela City",,14.7169,120.956,,,0,,0
"LTFRB_1340",,"D Tuazon / Don Manuel Agregado Intersection, Quezon City",,14.6303,120.999,,,0,,0
"LTFRB_1341",,"D Tuazon, Quezon City",,14.632,120.999,,,0,,0
"LTFRB_1342",,"N. S. Amoranto Sr. Avenue, Quezon City",,14.631,120.998,,,0,,0
"LTFRB_1343",,"D Tuazon / Sct. D. M Alcaraz Intersection, Quezon City",,14.634,120.998,,,0,,0
"LTFRB_1344",,"D Tuazon / Sta Catalina Intersection, Quezon City",,14.6361,120.997,,,0,,0
"LTFRB_1345",,"N. S. Amoranto Sr. Avenue, Quezon City",,14.6321,121,,,0,,0
"LTFRB_1346",,"N. S. Amoranto Sr. Avenue / Banawe Avenue Intersection, Quezon City",,14.6327,121.002,,,0,,0
"LTFRB_1347",,"Banawe Avenue, Quezon City",,14.6344,121.002,,,0,,0
"LTFRB_1348",,"Banawe Avenue, Quezon City",,14.636,121.001,,,0,,0
"LTFRB_1349",,"Banawe Avenue, Quezon City",,14.6375,121.001,,,0,,0
"LTFRB_135",,"Charisma Christian School, M. H. del Pilar St., Malanday, Valenzuela City",,14.7156,120.953,,,0,,0
"LTFRB_1350",,"N. S. Amoranto Sr. Avenue / Biak an Bato Intersection, Quezon City",,14.6338,121.004,,,0,,0
"LTFRB_1351",,"N. S. Amoranto Sr. Avenue / Sto. Domingo Avenue Intersection, Quezon City",,14.6347,121.006,,,0,,0
"LTFRB_1352",,"N. S. Amoranto Sr. Avenue / Don Jose Intersection, Quezon City",,14.6356,121.008,,,0,,0
"LTFRB_1353",,"N. S. Amoranto Sr. Avenue / Don Jose Intersection, Quezon City",,14.6359,121.009,,,0,,0
"LTFRB_1354",,"Banawe Avenue, Quezon City",,14.6313,121.002,,,0,,0
"LTFRB_1355",,"Banawe Avenue, Quezon City",,14.63,121.003,,,0,,0
"LTFRB_1356",,"Philipine Orthapedic Centre",,14.6288,121.004,,,0,,0
"LTFRB_1357",,"Banawe Avenue / Maria Clara Intersection, Quezon City",,14.6275,121.004,,,0,,0
"LTFRB_1358",,"Banawe Avenue, Quezon City",,14.6265,121.005,,,0,,0
"LTFRB_1359",,"Banawe Avenue, Quezon City",,14.6255,121.006,,,0,,0
"LTFRB_136",,"M. H. del Pilar St. / E Esteban Intersection, Valenzuela City",,14.7147,120.95,,,0,,0
"LTFRB_1360",,"Banawe Avenue / P. Florentino Intersection, Quezon City",,14.6244,121.007,,,0,,0
"LTFRB_1361",,"Quezon Avenue, Quezon City",,14.6211673113,121.0052204132,,,0,,0
"LTFRB_1362",,"National Youth Commision, Quezon Avenue, Quezon City",,14.6228,121.007,,,0,,0
"LTFRB_1363",,"Quezon Avenue, Quezon City",,14.6239,121.008,,,0,,0
"LTFRB_1364",,"Quezon Avenue, Quezon City",,14.6251,121.01,,,0,,0
"LTFRB_1365",,"Santo Domingo Church, Quezon Avenue, Quezon City",,14.6264,121.011,,,0,,0
"LTFRB_1366",,"Quezon Avenue, Quezon City",,14.6277,121.012,,,0,,0
"LTFRB_1367",,"Systems Technology Institute, Quezon Avenue, Quezon City",,14.6292,121.014,,,0,,0
"LTFRB_1368",,"Quezon Avenue / Scout Chuatoco Intersection, Quezon City",,14.6305,121.016,,,0,,0
"LTFRB_1369",,"Hayundai, Quezon Avenue, Quezon City",,14.6318,121.017,,,0,,0
"LTFRB_137",,"M. H. del Pilar St. / B. Espiritu Intersection, Mabolo, Valenzuela City",,14.7131,120.948,,,0,,0
"LTFRB_1370",,"Quezon Avenue / Roosevelt Avenue Intersection, Quezon City",,14.6328,121.019,,,0,,0
"LTFRB_1371",,"San Pedro Bautisa / Felipe Street Intersection, Quezon City",,14.6392,121.014,,,0,,0
"LTFRB_1372",,"San Pedro Bautisa, Quezon City",,14.6382,121.013,,,0,,0
"LTFRB_1373",,"San Pedro Bautisa / C. Santos Intersection, Quezon City",,14.637,121.013,,,0,,0
"LTFRB_1374",,"San Pedro Bautisa / Caragay Intersection, Quezon City",,14.6358,121.014,,,0,,0
"LTFRB_1375",,"San Pedro Bautisa / Bernardo Intersection, Quezon City",,14.6347,121.014,,,0,,0
"LTFRB_1376",,"Roosevelt Avenue, Quezon City",,14.639,121.017,,,0,,0
"LTFRB_1377",,"Roosevelt Avenue, Quezon City",,14.6381,121.018,,,0,,0
"LTFRB_1378",,"Roosevelt Avenue / Bautista Intersection, Quezon City",,14.6369,121.018,,,0,,0
"LTFRB_1379",,"Roosevelt Avenue / De Vera Intersection, Quezon City",,14.6354,121.018,,,0,,0
"LTFRB_138",,"Polo Market, Poblacion Road, Valenzuela City",,14.7085,120.947,,,0,,0
"LTFRB_1380",,"Philipine Maritime Institute, Roosevelt Avenue, Quezon City",,14.6339,121.018,,,0,,0
"LTFRB_1381",,"Fisher Mall, Quezon Avenue, Quezon City",,14.6337,121.02,,,0,,0
"LTFRB_1382",,"Quezon Avenue, Quezon City",,14.6346,121.022,,,0,,0
"LTFRB_1383",,"Quezon Avenue, Quezon City",,14.6358,121.024,,,0,,0
"LTFRB_1384",,"Quezon Avenue / West Avenue Intersection, Quezon City",,14.637,121.026,,,0,,0
"LTFRB_1385",,"St Vincent School, West Avenue / Catanduanes Intersection Quezon City",,14.6496,121.029,,,0,,0
"LTFRB_1386",,"West Avenue / Baler  Intersection Quezon City",,14.6479,121.028,,,0,,0
"LTFRB_1387",,"West Avenue / Catanduanes Intersection Quezon City",,14.6463,121.028,,,0,,0
"LTFRB_1388",,"West Avenue Shop, West Avenue / Mabuhay Intersection, Quezon City",,14.6441,121.027,,,0,,0
"LTFRB_1389",,"West Avenue, Quezon City",,14.6422,121.027,,,0,,0
"LTFRB_139",,"Poblacion Road / Isla Intersection, Mabolo, Valenzuela City",,14.7097,120.947,,,0,,0
"LTFRB_1390",,"West Avenue / Bulletin Intersection, Quezon City",,14.6405,121.027,,,0,,0
"LTFRB_1391",,"Kawloon House, West Avenue, Quezon City",,14.6391,121.026,,,0,,0
"LTFRB_1392",,"Quezon Avenue / West 6th Intersection, Quezon City",,14.6382,121.028,,,0,,0
"LTFRB_1393",,"Dave's Tropical Breeze, Quezon Avenue, Quezon City",,14.6393,121.029,,,0,,0
"LTFRB_1394",,"Quezon Avenue, Quezon City",,14.6405,121.031,,,0,,0
"LTFRB_1395",,"Quezon Avenue, Quezon City",,14.6417,121.033,,,0,,0
"LTFRB_1396",,"Quezon Avenue / Sgt. Esguerra Intersection, Quezon City",,14.6429,121.035,,,0,,0
"LTFRB_1397",,"Quezon Avenue / Epifanio de los Santos Avenue Intersection, Quezon City",,14.6439,121.037,,,0,,0
"LTFRB_1398",,"Quezon Avenue / Sgt. Esguerra Intersection, Quezon City",,14.6449,121.038,,,0,,0
"LTFRB_1399",,"Quezon Avenue / BIR Road Intersection, Quezon City",,14.6462,121.041,,,0,,0
"LTFRB_14",,"Bocaue Public Market, MacArthur Highway, Bocaue, Bulacan",,14.7986,120.926,,,0,,0
"LTFRB_140",,"Lee Hong Kong, Poblacion Road, Valenzuela City",,14.7114,120.949,,,0,,0
"LTFRB_1400",,"Childrens Medical Center, Quezon Avenue, Quezon City",,14.6471,121.042,,,0,,0
"LTFRB_1401",,"Quezon Avenue, Quezon City",,14.6479,121.043,,,0,,0
"LTFRB_1402",,"Quezon Avenue (North Triangle), Quezon City",,14.6489,121.045,,,0,,0
"LTFRB_1403",,"Quezon Avenue, Quezon City",,14.6497,121.046,,,0,,0
"LTFRB_1404",,"Occupational Safety and Health Center, Agham (North Triangle), Quezon City",,14.6526,121.039,,,0,,0
"LTFRB_1405",,"Sitio San Roque, Agham (North Triangle), Quezon City",,14.6507,121.039,,,0,,0
"LTFRB_1406",,"Sitio San Roque / Central Terminal Road Intersection, Agham (North Triangle), Quezon City",,14.6491,121.04,,,0,,0
"LTFRB_1407",,"Sitio San Roque near Childrens Medical Hospital, Agham (North Triangle), Quezon City",,14.6478,121.04,,,0,,0
"LTFRB_1408",,"Santa Catalina / Speaker Perez Intersection, Quezon City",,14.6358,120.996,,,0,,0
"LTFRB_1409",,"Andres Bonifacio near Manila North Cemetary, Quezon City",,14.6355,120.993,,,0,,0
"LTFRB_141",,"San Diego de Alcala Parish, Palassan Road, Kapitan Viilila, Valenzuela City",,14.7078,120.946,,,0,,0
"LTFRB_1410",,"Andres Bonifacio / Magnas Intersection, Quezon City",,14.6341,120.993,,,0,,0
"LTFRB_1411",,"Andres Bonifacio / Lunas Intersection, Quezon City",,14.6319,120.992,,,0,,0
"LTFRB_1412",,"Andres Bonifacio / Bulusan Intersection, Quezon City",,14.6297,120.991,,,0,,0
"LTFRB_1413",,"Andres Bonifacio / Iba Intersection, Quezon City",,14.6277,120.99,,,0,,0
"LTFRB_1414",,"Andres Bonifacio / Ferdinand Blumentritt Intersection, Quezon City",,14.626,120.99,,,0,,0
"LTFRB_1415",,"Norberto S. Amoranto Street / Bulasan Intersection, Quezon City",,14.6286,120.994,,,0,,0
"LTFRB_1416",,"Norberto S. Amoranto Street / Iba Intersection, Quezon City",,14.6271,120.993,,,0,,0
"LTFRB_1417",,"Norberto S. Amoranto Street / Calavite Intersection, Quezon City",,14.6258,120.991,,,0,,0
"LTFRB_1418",,"Dimasalang / Aurora Boulevard Intersection, Quezon City",,14.6239,120.989,,,0,,0
"LTFRB_1419",,"Ferdinand Blumentritt / Aurora Boulevard Intersection, Quezon City",,14.6253,120.987,,,0,,0
"LTFRB_142",,"Polo National High School, Palassan Road, Valenzuela City",,14.7069,120.947,,,0,,0
"LTFRB_1421",,"Ferdinand Blumentritt, Quezon City",,14.6231,120.993,,,0,,0
"LTFRB_1422",,"Ferdinand Blumentritt / Laon Laan Intersection, Quezon City",,14.6217,120.995,,,0,,0
"LTFRB_1423",,"Halcon, Quezon City",,14.6226,120.995,,,0,,0
"LTFRB_1424",,"Maria Clara / Ibarra Intersection, Quezon City",,14.6208,120.994,,,0,,0
"LTFRB_1425",,"Ibarra, Quezon City",,14.6224,120.992,,,0,,0
"LTFRB_1426",,"Metrica, Quezon City",,14.6229,120.99,,,0,,0
"LTFRB_1427",,"Cavitie / Leonor Rivera Intersection, Quezon City",,14.6242,120.987,,,0,,0
"LTFRB_1428",,"Cavite / Manuel Hizon Intersection, Quezon City",,14.6242,120.985,,,0,,0
"LTFRB_1429",,"Cavite, Quezon City",,14.6242,120.983,,,0,,0
"LTFRB_143",,"Palasan Chapel, M H Del Pilar, Kapitan Viilila, Obando, Valenzuela City",,14.7036,120.949,,,0,,0
"LTFRB_1430",,"Light Rail Transit Line / Bulacan Intersection, Quezon City",,14.6268,120.983,,,0,,0
"LTFRB_1431",,"Pampanga / Light Rail Transit Line, Quezon City",,14.628,120.984,,,0,,0
"LTFRB_1432",,"Pampanga / Pedro Guevarra Intersection, Quezon City",,14.6279,120.986,,,0,,0
"LTFRB_1433",,"Felix Huetas / Bulacan Intersection, Quezon City",,14.6267,120.985,,,0,,0
"LTFRB_1434",,"Pedro Guevarra, Quezon City",,14.6259,120.986,,,0,,0
"LTFRB_1435",,"New Antipolo / Leonor Rivera Intersection, Quezon City",,14.6226,120.987,,,0,,0
"LTFRB_1436",,"Tiago, Quezon City",,14.6227,120.988,,,0,,0
"LTFRB_1437",,"Dimasalang Birdge / New Antipolo Intersection, Quezon City",,14.6207,120.989,,,0,,0
"LTFRB_1438",,"New Antipolo / Oroquieta Intersection, Quezon City",,14.6227,120.984,,,0,,0
"LTFRB_1439",,"Old Antipolo / Felix Huetas Intersection, Quezon City",,14.6223,120.985,,,0,,0
"LTFRB_144",,"M H Del Pilar / Mendoza, Palasan Valenzuela City",,14.7015,120.95,,,0,,0
"LTFRB_1440",,"Light Rail Transportation / New Antipolo, Quezon City",,14.6226,120.983,,,0,,0
"LTFRB_1441",,"Ferdinand Blumentritt / Felix Huertas Intersection, Quezon City",,14.6237,120.985,,,0,,0
"LTFRB_1442",,"Rizal Avenue near Aurora Blvd Interstion, Quezon City",,14.6286,120.983,,,0,,0
"LTFRB_1443",,"Rizal Avenue, Quezon City",,14.6299,120.982,,,0,,0
"LTFRB_1444",,"Rizal Avenue / Mt Samat Intersection, Quezon City",,14.6311,120.981,,,0,,0
"LTFRB_1445",,"Jose Abad Santos Avenue / Morong Intersection, Quezon City",,14.6304,120.98,,,0,,0
"LTFRB_1446",,"Jose Abad Santos Avenue / Corregidor Intersection, Quezon City",,14.629,120.979,,,0,,0
"LTFRB_1447",,"Jose Abad Santos Avenue, Quezon City",,14.6275,120.979,,,0,,0
"LTFRB_1448",,"Jose Abad Santos Avenue / T Bugallon Street Intersection, Quezon City",,14.6257,120.979,,,0,,0
"LTFRB_1449",,"T Bugallon Street, Quezon City",,14.6256,120.98,,,0,,0
"LTFRB_145",,"Kapitan Viilila / Kabesang Pino Intersection, Obando, Valenzuela City",,14.7062,120.943,,,0,,0
"LTFRB_1450",,"T Bugallon Street / Cavite Intersection, Quezon City",,14.6243,120.981,,,0,,0
"LTFRB_1451",,"T. Mapua / New Antipolo Intersection, Quezon City",,14.623,120.982,,,0,,0
"LTFRB_1452",,"T. Mapua / Laguna Intersection, Quezon City",,14.6219,120.982,,,0,,0
"LTFRB_1453",,"Ipil  / Laguna Intersection, Quezon City",,14.6219,120.98,,,0,,0
"LTFRB_1454",,"Jose Abad Santos Avenue, Quezon City",,14.6246,120.978,,,0,,0
"LTFRB_1455",,"Jose Abad Santos Avenue, Quezon City",,14.6233,120.978,,,0,,0
"LTFRB_1456",,"Jose Abad Santos Avenue, Quezon City",,14.6219,120.978,,,0,,0
"LTFRB_1457",,"Jose Abad Santos Avenue, Quezon City",,14.6205,120.978,,,0,,0
"LTFRB_1458",,"Jose Abad Santos Avenue, Quezon City",,14.6187,120.978,,,0,,0
"LTFRB_1459",,"Jose Abad Santos Avenue / Tayuman Road, Quezon City",,14.6168,120.977,,,0,,0
"LTFRB_1460",,"Tayuman Road, Manila",,14.6165,120.979,,,0,,0
"LTFRB_1461",,"Tayuman Road / Serverino Reyes, Manila",,14.6167,120.981,,,0,,0
"LTFRB_1462",,"Tomas Mapua / Camarines Intersection, Manila",,14.6182,120.982,,,0,,0
"LTFRB_1463",,"Tomas Mapua / Batangas Intersection, Manila",,14.6206,120.982,,,0,,0
"LTFRB_1466",,"Ipil, Manila",,14.62,120.98,,,0,,0
"LTFRB_1467",,"Ipil / Camarines Intersection, Manila",,14.6182,120.98,,,0,,0
"LTFRB_1468",,"Camarines, Manila",,14.6181,120.984,,,0,,0
"LTFRB_1469",,"Oroquieta / Batangas Intersection, Manila",,14.6206,120.984,,,0,,0
"LTFRB_147",,"Catanghalan Chapel, Kapitan Viilila, Obando, Valenzuela City",,14.7052,120.941,,,0,,0
"LTFRB_1470",,"Light Rail Transportation 1, Manila",,14.6211,120.983,,,0,,0
"LTFRB_1471",,"Light Rail Transportation 1, Manila",,14.6185,120.983,,,0,,0
"LTFRB_1472",,"Department of Health, Razal Avenue, Manila",,14.6156,120.983,,,0,,0
"LTFRB_1473",,"Felix Heuertas, Manila",,14.62,120.985,,,0,,0
"LTFRB_1474",,"Lacson Avenue, Manila",,14.6176,120.985,,,0,,0
"LTFRB_1475",,"Antipolo, Manila",,14.6219,120.988,,,0,,0
"LTFRB_1476",,"Dimaslang / Ruperto S Cristobal Street Intersection, Manila",,14.6191,120.989,,,0,,0
"LTFRB_1477",,"Dimaslang, Manila",,14.6176,120.989,,,0,,0
"LTFRB_1478",,"Dimaslang, Manila",,14.6162,120.989,,,0,,0
"LTFRB_1479",,"Aragon / Alfonso Mendoza Intersection, Manila",,14.6167,120.987,,,0,,0
"LTFRB_148",,"Simbahanng Church, Osmena Street, Obando",,14.7098,120.937,,,0,,0
"LTFRB_1480",,"Lacson Avenue / Alfonso Mendoza Intersection, Manila",,14.6161,120.987,,,0,,0
"LTFRB_1481",,"Oroquieta, Manila",,14.6163,120.984,,,0,,0
"LTFRB_1482",,"Dr.Alejos, Nicanor Roxas Intersection, Manila",,14.6223,120.998,,,0,,0
"LTFRB_1483",,"Nicanor Roxas / Blumentritt  Intersection, Manila",,14.6208,120.996,,,0,,0
"LTFRB_1484",,"Instruccion / Nicanor Roxas Intersection, Manila",,14.6193,120.994,,,0,,0
"LTFRB_1485",,"San Diego / Nicanor Roxas Intersection, Manila",,14.6175,120.993,,,0,,0
"LTFRB_1486",,"Vicente G Cruz / Nicanor Roxas Intersection, Manila",,14.616,120.991,,,0,,0
"LTFRB_1487",,"Vicente G Cruz / Maria Clara Street Intersection, Manila",,14.6172,120.99,,,0,,0
"LTFRB_1488",,"Laong Laan, Manila",,14.6146,120.989,,,0,,0
"LTFRB_1489",,"Iba / Dapitan Intersrction, Manila",,14.621,120.998,,,0,,0
"LTFRB_149",,"J. P Rizal, Obando",,14.7073,120.939,,,0,,0
"LTFRB_1490",,"Musa / Dapitan Intersrction, Manila",,14.6194,120.997,,,0,,0
"LTFRB_1491",,"Dapitan / Antonio Maceda Intersrction, Manila",,14.6177,120.995,,,0,,0
"LTFRB_1492",,"Dapitan / Algeciras Intersrction, Manila",,14.616,120.993,,,0,,0
"LTFRB_1493",,"Dapitan / Maria Cristina ntersrction, Manila",,14.6142,120.991,,,0,,0
"LTFRB_1494",,"Blumentritt / Pity Margal Intersection, Manila",,14.6188,120.998,,,0,,0
"LTFRB_1495",,"Blumentritt, Manila",,14.6163,120.999,,,0,,0
"LTFRB_1496",,"Halcon / Espana Boulevard Intersection, Manila",,14.6169,121.001,,,0,,0
"LTFRB_1497",,"Mayon Avenue / Florentino Intersection, Manila",,14.6193,121.001,,,0,,0
"LTFRB_1498",,"Halcon / Florentino Intersection, Manila",,14.6179,121,,,0,,0
"LTFRB_1499",,"Instruccion / Espana Boulevard Intersection, Manila",,14.615,120.999,,,0,,0
"LTFRB_15",,"Sto. Nino Academy, MacArthur Highway, Bocaue, Bulacan",,14.7961,120.93,,,0,,0
"LTFRB_150",,"Joaquin, Obando",,14.7116,120.936,,,0,,0
"LTFRB_1500",,"Espana Boulevard / Gen. E. Quintos Street Intersection, Manila",,14.6136,120.997,,,0,,0
"LTFRB_1501",,"Espana Boulevard / Ruperto. S. Crsitobal Streett Intersection, Manila",,14.6123,120.996,,,0,,0
"LTFRB_1502",,"Ramon Magsaysay High School, Espana Boulevard, Manila",,14.6108,120.994,,,0,,0
"LTFRB_1503",,"Vicente G Cruz / Florentino Intersection, Manila",,14.6129,120.994,,,0,,0
"LTFRB_1504",,"Vicente G Cruz / Piy Margal Intersection, Manila",,14.6139,120.993,,,0,,0
"LTFRB_1505",,"M. dela Fuente, Manila",,14.612,120.994,,,0,,0
"LTFRB_1506",,"Piy Margal / Dos Castillas Intersection, Manila",,14.6124,120.991,,,0,,0
"LTFRB_1507",,"Daptian / Arsenio H. Lacson Ave Intersection, Manila",,14.613,120.99,,,0,,0
"LTFRB_1508",,"San Lazaro / Alfonso Mendoza Intersection, Manila",,14.6141,120.986,,,0,,0
"LTFRB_1509",,"Alfonso Mendoza, Manila",,14.6119,120.986,,,0,,0
"LTFRB_151",,"Obando Fire Station",,14.7116,120.935,,,0,,0
"LTFRB_1510",,"Alfonso Mendoza, Manila",,14.6097,120.986,,,0,,0
"LTFRB_1511",,"Quezon Blvd / P.Paredes Intersection, Manila",,14.6073,120.986,,,0,,0
"LTFRB_1512",,"Gen. Concepcion / Laong Laan Intersection, Manila",,14.613,120.988,,,0,,0
"LTFRB_1514",,"Juaning / Dapitan Intersection, Manila",,14.6107,120.987,,,0,,0
"LTFRB_1515",,"J. Barlin / P. Noval Intersection, Manila",,14.6088,120.987,,,0,,0
"LTFRB_1516",,"P. Noval / Delos Reyes Intersection, Manila",,14.6078,120.988,,,0,,0
"LTFRB_1517",,"P. Noval / Espaa Blvd Intersection, Manila",,14.6067,120.989,,,0,,0
"LTFRB_1518",,"Espaa Blvd / Osmea Drive Intersection, Manila",,14.6082,120.991,,,0,,0
"LTFRB_1519",,"Espaa Blvd / Arsenio H. Lacson Ave  Intersection, Manila",,14.6097,120.993,,,0,,0
"LTFRB_152",,"Obando Central School, J. P Rizal, Obando",,14.7133,120.935,,,0,,0
"LTFRB_1520",,"P.Paredes / Espaa Blvd Intersection, Manila",,14.6063,120.987,,,0,,0
"LTFRB_1521",,"Espaa Blvd / Quezon Blvd  Intersection, Manila",,14.6048,120.985,,,0,,0
"LTFRB_1522",,"Espaa Blvd / Nicanor Reyes St Intersection, Manila",,14.6056,120.988,,,0,,0
"LTFRB_1523",,"Nicanor Reyes Street, Manila",,14.6036,120.988,,,0,,0
"LTFRB_1524",,"Claro M. Recto Ave / Nicanor Reyes Street Intersection, Manila",,14.6022,120.987,,,0,,0
"LTFRB_1525",,"Claro M. Recto Ave / Quezon Blvd Intersection, Manila",,14.6031,120.985,,,0,,0
"LTFRB_1526",,"LRT Doroteo Jose-Recto Station Walkway / Rizal Avenue Intersection, Manila",,14.6037,120.983,,,0,,0
"LTFRB_1527",,"Lope De Vega / Oroquieta Intersection, Manila",,14.6067,120.983,,,0,,0
"LTFRB_1528",,"Oroquieta, Manila",,14.6051,120.983,,,0,,0
"LTFRB_1529",,"Oroquieta / Mayhaligue Intersection, Manila",,14.6087,120.983,,,0,,0
"LTFRB_153",,"Woodbridge Plaza, J. P Rizal, Obando",,14.7141,120.934,,,0,,0
"LTFRB_1530",,"Oroquieta / Bambang Intersection, Manila",,14.6109,120.983,,,0,,0
"LTFRB_1531",,"Sulu, Manila",,14.6076,120.984,,,0,,0
"LTFRB_1532",,"Felix Huertas, Manila",,14.6092,120.984,,,0,,0
"LTFRB_1533",,"Felix Huertas, Manila",,14.6115,120.984,,,0,,0
"LTFRB_1534",,"Quiricada / Felix Huertas Intersection, Manila",,14.613,120.984,,,0,,0
"LTFRB_1535",,"Felix Huertas, Manila",,14.6147,120.985,,,0,,0
"LTFRB_1536",,"San Lazaro / Oroquieta Intersection, Manila",,14.6143,120.984,,,0,,0
"LTFRB_1537",,"Oroquieta / Alvarez Intersection, Manila",,14.6121,120.983,,,0,,0
"LTFRB_1538",,"Jose R. Reyes Memorial Medical Center, Rizal Avenue, Manila",,14.6137,120.983,,,0,,0
"LTFRB_1539",,"Rizal Avenue, Manila",,14.6117,120.983,,,0,,0
"LTFRB_154",,"J. P Rizal / Pantay - Bituin Intersection, Obando",,14.7158,120.933,,,0,,0
"LTFRB_1540",,"Rizal Avenue, Manila",,14.6101,120.982,,,0,,0
"LTFRB_1541",,"Jose R. Reyes Memorial Medical Center, Quiricada, Manila",,14.6132,120.982,,,0,,0
"LTFRB_1542",,"Quiricada / Ipil Intersection, Manila",,14.6132,120.98,,,0,,0
"LTFRB_1543",,"Quiricada / Yakal Intersection, Manila",,14.6133,120.979,,,0,,0
"LTFRB_1544",,"Bambang Public Market, Ipil, Manila",,14.6118,120.98,,,0,,0
"LTFRB_1545",,"Bambang / S.Reyes Intersection, Manila",,14.611,120.981,,,0,,0
"LTFRB_1546",,"Mayhaligue / S.Reyes Intersection, Manila",,14.6089,120.981,,,0,,0
"LTFRB_1547",,"Valariano Fugoso / Teodora Alonzo Intersection, Manila",,14.608,120.98,,,0,,0
"LTFRB_1548",,"Teodora Alonzo, Manila",,14.606,120.98,,,0,,0
"LTFRB_1549",,"Teodora Alonzo / Claro M. Recto Ave Intersection, Manila",,14.6044,120.979,,,0,,0
"LTFRB_155",,"J. P Rizal, Obando",,14.7178,120.931,,,0,,0
"LTFRB_1550",,"Claro M. Recto Ave / Guillermo Masangkay Intersection, Manila",,14.6053,120.977,,,0,,0
"LTFRB_1551",,"Claro M. Recto Ave / Jose Abad Santos Ave. Intersection, Manila",,14.6061,120.975,,,0,,0
"LTFRB_1552",,"Philipine Cultural College, Jose Abad Santos Ave., Intersection, Manila",,14.6075,120.975,,,0,,0
"LTFRB_1553",,"Destiny Cable, Jose Abad Santos Ave., Manila",,14.6089,120.976,,,0,,0
"LTFRB_1554",,"Jose Abad Santos Ave., Manila",,14.6106,120.976,,,0,,0
"LTFRB_1555",,"Jose Abad Santos Ave / Bambang Intersection., Manila",,14.6125,120.976,,,0,,0
"LTFRB_1556",,"Antonio Rivera / Bambang Intersection., Manila",,14.6128,120.976,,,0,,0
"LTFRB_1557",,"Antonio Rivera / Mayhaligue Intersection., Manila",,14.6103,120.975,,,0,,0
"LTFRB_1558",,"Narra / Padre Algue Street Intersection, Manila",,14.6083,120.975,,,0,,0
"LTFRB_1559",,"C. La Torre / Antonio Rivera Intersection., Manila",,14.6094,120.974,,,0,,0
"LTFRB_156",,"J. P Rizal / Hulo Intersection, Obando",,14.7196,120.93,,,0,,0
"LTFRB_1560",,"Antonio Rivera, Manila",,14.6074,120.974,,,0,,0
"LTFRB_1561",,"Bambang / Yakal Intersection, Manila",,14.6119,120.978,,,0,,0
"LTFRB_1562",,"Jose Abad Santos Ave./ Villaruel Street Villaruel Intersection, Manila",,14.6153,120.977,,,0,,0
"LTFRB_1563",,"Antonio Rivera, Manila",,14.6161,120.976,,,0,,0
"LTFRB_1564",,"Antonio Rivera, Manila",,14.6147,120.975,,,0,,0
"LTFRB_1565",,"Quiricada / Antonio Rivera Intersection, Manila",,14.6139,120.977,,,0,,0
"LTFRB_1566",,"Narra, Manila",,14.6067,120.974,,,0,,0
"LTFRB_1567",,"T. Mapua, Manila",,14.6102,120.981,,,0,,0
"LTFRB_1568",,"T. Mapua, Manila",,14.6084,120.981,,,0,,0
"LTFRB_1569",,"T. Mapua, Manila",,14.607,120.981,,,0,,0
"LTFRB_157",,"San Pascual Elementary School, J. P Rizal, Obando",,14.7205,120.929,,,0,,0
"LTFRB_1570",,"T. Mapua, Manila",,14.6056,120.981,,,0,,0
"LTFRB_1571",,"T. Mapua, Manila",,14.6044,120.981,,,0,,0
"LTFRB_1572",,"Valariano Fugoso, Manila",,14.6077,120.982,,,0,,0
"LTFRB_1573",,"Valariano Fugoso, Manila",,14.606,120.982,,,0,,0
"LTFRB_1574",,"Valariano Fugoso, Manila",,14.6039,120.982,,,0,,0
"LTFRB_1575",,"Dr. Jose Fabella Memorial Hospital, Felix Huertas, Manila",,14.6069,120.984,,,0,,0
"LTFRB_1576",,"Francis P. Yuseco, Manila",,14.62,120.974,,,0,,0
"LTFRB_1577",,"Dagupan, Manila",,14.6187,120.974,,,0,,0
"LTFRB_1578",,"Dagupan / Arqueros Intersection, Manila",,14.6165,120.974,,,0,,0
"LTFRB_1579",,"Dagupan / Gabriella  Intersection, Manila",,14.6145,120.973,,,0,,0
"LTFRB_158",,"Lawa Elementary School, J. P Rizal, Obando",,14.7231,120.928,,,0,,0
"LTFRB_1580",,"Dagupan / Linampas Intersection, Manila",,14.6129,120.973,,,0,,0
"LTFRB_1581",,"PNR Tutuban Station, Dagupan, Manila",,14.6115,120.973,,,0,,0
"LTFRB_1582",,"Dagupan, Manila",,14.6099,120.972,,,0,,0
"LTFRB_1583",,"Ricafort, Manila",,14.6094,120.971,,,0,,0
"LTFRB_1584",,"Dagupan, Manila",,14.6083,120.972,,,0,,0
"LTFRB_1585",,"Dagupan, Manila",,14.607,120.972,,,0,,0
"LTFRB_1586",,"Ricafort, Manila",,14.6096,120.969,,,0,,0
"LTFRB_1587",,"Tutuban Cluster Mall, CM Recto Avenue, Manila",,14.6063,120.973,,,0,,0
"LTFRB_1588",,"Claro M. Recto Ave / Ylaya Intersection, Manila",,14.6052,120.97,,,0,,0
"LTFRB_1589",,"Sto. Cristo / Claro M. Recto Ave Intersection, Manila",,14.6036,120.968,,,0,,0
"LTFRB_159",,"Lawa Chapel, J. P Rizal, Obando",,14.7257,120.926,,,0,,0
"LTFRB_1590",,"Claro M. Recto Ave, Manila",,14.6019,120.967,,,0,,0
"LTFRB_1591",,"Del Pan Flyover, Manila",,14.5999,120.965,,,0,,0
"LTFRB_1592",,"Juan Luna, Manila",,14.6048,120.971,,,0,,0
"LTFRB_1593",,"Juan Luna / Sta. Elena Intersection, Manila",,14.6035,120.972,,,0,,0
"LTFRB_1594",,"Juan Luna, Manila",,14.6023,120.972,,,0,,0
"LTFRB_1595",,"Juan Luna / Veronica Intersection, Manila",,14.6008,120.973,,,0,,0
"LTFRB_1596",,"Soler St / Reina Regente Intersection, Manila",,14.6047,120.974,,,0,,0
"LTFRB_1597",,"Soler St / Roman Intersection, Manila",,14.6054,120.973,,,0,,0
"LTFRB_1598",,"Reina Regente / Dadivas Intersection, Manila",,14.6028,120.974,,,0,,0
"LTFRB_1599",,"T. Mapua, Manila",,14.6023,120.98,,,0,,0
"LTFRB_16",,"Binang Elementary School, MacArthur Highway, Bocaue, Bulacan",,14.7938,120.931,,,0,,0
"LTFRB_160",,"Paco Elementarty School, F. Balagtas, Obando",,14.7298,120.923,,,0,,0
"LTFRB_1600",,"T. Mapua, Manila",,14.6008,120.979,,,0,,0
"LTFRB_1601",,"Camba / Clavel Intersection, Manila",,14.6009,120.968,,,0,,0
"LTFRB_1602",,"Lavezares St / Madrid Intersection, Manila",,14.5995,120.969,,,0,,0
"LTFRB_1603",,"Lara / Madrid Intersection, Manila",,14.5984,120.97,,,0,,0
"LTFRB_1604",,"Camba / San Nicolas",,14.5994,120.97,,,0,,0
"LTFRB_1605",,"Muelle Dela Industria / Madrid Intersection, Manila",,14.5966,120.971,,,0,,0
"LTFRB_1606",,"Numancia / Muelle Dela Industria Intersection, Manila",,14.5964,120.972,,,0,,0
"LTFRB_1607",,"Prensa / Muelle Dela Industria Intersection, Manila",,14.5962,120.973,,,0,,0
"LTFRB_1608",,"Dasmarias / Juan Luna Intersection, Manila",,14.5971,120.975,,,0,,0
"LTFRB_1609",,"Juan Luna, Manila",,14.5989,120.974,,,0,,0
"LTFRB_161",,"Paliwas Road / Pedro B Jacinto Street Intersection, Obando",,14.7383,120.916,,,0,,0
"LTFRB_1610",,"Quintin Paredes, Manila",,14.5985,120.976,,,0,,0
"LTFRB_1611",,"Dasmarias, Manila",,14.5983,120.977,,,0,,0
"LTFRB_1612",,"Dasmarias, Manila",,14.5995,120.979,,,0,,0
"LTFRB_1613",,"A F. Torres / Ronquillo Intersection, Manila",,14.6003,120.981,,,0,,0
"LTFRB_1614",,"Rizal Avenue, Manila",,14.6015,120.982,,,0,,0
"LTFRB_1615",,"Rizal Avenue, Manila",,14.5991,120.981,,,0,,0
"LTFRB_1616",,"Bustos / Rizal Avenue Intersection, Manila",,14.5998,120.981,,,0,,0
"LTFRB_1617",,"T. Pinpin Street / Escolta Intersection, Manila",,14.5981,120.979,,,0,,0
"LTFRB_1618",,"Escolta, Manila",,14.5972,120.978,,,0,,0
"LTFRB_1619",,"Juan Luna / Muelle Dela Industria Intersection, Manila",,14.596,120.976,,,0,,0
"LTFRB_162",,"F. Balagtas / M Jacinto, Obando",,14.7309,120.922,,,0,,0
"LTFRB_1620",,"Jones Bridge / Riverside Dr Intersection, Manila",,14.5953,120.978,,,0,,0
"LTFRB_1621",,"McArthur Bridge , Manila",,14.5959,120.98,,,0,,0
"LTFRB_1622",,"Padre Burgos St, Manila",,14.5938,120.98,,,0,,0
"LTFRB_1623",,"Magallanes Dr, Manila",,14.595,120.979,,,0,,0
"LTFRB_1624",,"Riverside Dr, Manila",,14.5948,120.975,,,0,,0
"LTFRB_1625",,"Andres Soriano Jr Ave / Muralla Intersection, Manila",,14.5938,120.974,,,0,,0
"LTFRB_1626",,"Magallanes Dr, Manila",,14.5945,120.977,,,0,,0
"LTFRB_1627",,"Andres Soriano Jr Ave / General Luna, Manila",,14.5922,120.972,,,0,,0
"LTFRB_1628",,"Bonifacio Drive, Manila",,14.59,120.971,,,0,,0
"LTFRB_1629",,"Bonifacio Drive, Manila",,14.588,120.973,,,0,,0
"LTFRB_163",,"F. Balagtas, Obando",,14.7332,120.92,,,0,,0
"LTFRB_1630",,"Bonifacio Drive, Manila",,14.5855,120.974,,,0,,0
"LTFRB_1631",,"25th St / Antonio C. Delgado Intersection, Manila",,14.5841,120.973,,,0,,0
"LTFRB_1632",,"Antonio C. Delgado, Manila",,14.586,120.971,,,0,,0
"LTFRB_1633",,"Railroad Dr, Manila",,14.5865,120.973,,,0,,0
"LTFRB_1634",,"Railroad Dr, Manila",,14.5883,120.971,,,0,,0
"LTFRB_1635",,"Railroad Dr / 13th St Intersection, Manila",,14.5903,120.97,,,0,,0
"LTFRB_1636",,"Antonio C. Delgado / 13th St Intersection, Manila",,14.5887,120.969,,,0,,0
"LTFRB_1637",,"Antonio C. Delgado / 16th St Intersection, Manila",,14.5876,120.97,,,0,,0
"LTFRB_1638",,"Padre Burgos St / Padre Burgos Street Intersection, Manila",,14.5832,120.975,,,0,,0
"LTFRB_1639",,"Padre Burgos St, Manila",,14.5843,120.978,,,0,,0
"LTFRB_164",,"Sto. Nino Chapel, F. Balagtas, Obando",,14.7355,120.918,,,0,,0
"LTFRB_1640",,"Padre Burgos St, Manila",,14.586,120.98,,,0,,0
"LTFRB_1641",,"Padre Burgos /  Taft Ave Intersection St, Manila",,14.5882,120.981,,,0,,0
"LTFRB_1642",,"Taft Ave, Manila",,14.5921,120.98,,,0,,0
"LTFRB_1643",,"Padre Burgos St / Anda Intersection, Manila",,14.5939,120.978,,,0,,0
"LTFRB_1644",,"Padre Burgos St, Manila",,14.5938,120.979,,,0,,0
"LTFRB_1645",,"Taft Ave, Manila",,14.5908,120.981,,,0,,0
"LTFRB_1646",,"Taft Ave, Manila",,14.588,120.982,,,0,,0
"LTFRB_1647",,"Justice Cecilia Munoz-Palma, Manila",,14.5915,120.982,,,0,,0
"LTFRB_1648",,"Natividad Almeda-Lopez , Manila",,14.5904,120.984,,,0,,0
"LTFRB_1649",,"Mayor Antonio J. Villegas Rd, Manilla",,14.5933,120.982,,,0,,0
"LTFRB_165",,"J. P Rizal, Obando",,14.7279,120.924,,,0,,0
"LTFRB_1650",,"A F. Torres, Manila",,14.6013,120.98,,,0,,0
"LTFRB_1651",,"Ayala Blvd / Taft Avenue Intersection, Manila",,14.5861,120.983,,,0,,0
"LTFRB_1652",,"Taft Ave / T.M. Kalaw Intersection, Manila",,14.5836,120.984,,,0,,0
"LTFRB_1653",,"Taft Ave / Padre Faura Intersection, Manila",,14.5799,120.986,,,0,,0
"LTFRB_1654",,"Traft Avenue, Maila",,14.5816,120.985,,,0,,0
"LTFRB_1655",,"Taft Ave / Josefa Llanes Escoda Intersection, Manila",,14.5773,120.988,,,0,,0
"LTFRB_1656",,"Padre Faura / General Luna Street Intersection, Manila",,14.5806,120.988,,,0,,0
"LTFRB_1657",,"Josefa Llanes Escoda / Felipe Agoncillo Intersection, Manila",,14.578,120.989,,,0,,0
"LTFRB_1658",,"Leon Guinto Sr. / Pedro Gil Intersection, Manila",,14.5765,120.989,,,0,,0
"LTFRB_1659",,"Leon Guinto Sr. / G. Apacible Inreesection, Manila",,14.5788,120.988,,,0,,0
"LTFRB_166",,"Tawiran Public Clinic, Tawiran Road, Obando",,14.7444,120.911,,,0,,0
"LTFRB_1660",,"T.M. Kalaw / Maria Y. Orosa St",,14.582,120.981,,,0,,0
"LTFRB_1661",,"Museum of Philippine History, Rizal Park, T.M. Kalaw, Manila",,14.5806,120.979,,,0,,0
"LTFRB_1662",,"United Nations Ave, Manila",,14.5817,120.983,,,0,,0
"LTFRB_1663",,"Robinson's Place Residences II, Padre Faura, Manila",,14.5785,120.983,,,0,,0
"LTFRB_1664",,"Mayfair Tower, United Nations Ave, Manila",,14.58,120.98,,,0,,0
"LTFRB_1665",,"Arquiza / Marcelo H. del Pilar Intersection, Manila",,14.5778,120.98,,,0,,0
"LTFRB_1666",,"Padre Faura / M Adriatico Intersection, Manila",,14.5777,120.982,,,0,,0
"LTFRB_1667",,"Jorge Bocobo, Manila",,14.5798,120.982,,,0,,0
"LTFRB_1668",,"Marcelo H. del Pilar / Salas Intersection, Manila",,14.5747,120.982,,,0,,0
"LTFRB_1669",,"Marcelo H. del Pilar / Sinagoga Intersection, Manila",,14.5712,120.983,,,0,,0
"LTFRB_167",,"Tawiran Road, Obando",,14.7424,120.912,,,0,,0
"LTFRB_1670",,"Marcelo H. del Pilar, Manila",,14.5683,120.985,,,0,,0
"LTFRB_1671",,"Sta. Monica / A.Mabini Intersection, Manila",,14.5762,120.982,,,0,,0
"LTFRB_1672",,"A.Mabini, Manila",,14.5733,120.983,,,0,,0
"LTFRB_1673",,"A.Mabini, Manila",,14.5702,120.985,,,0,,0
"LTFRB_1674",,"Philipine General Hospital, Pedro Gil, Manila",,14.5746,120.985,,,0,,0
"LTFRB_1675",,"UP College of Nursing, Pedro Gil, Manila",,14.5758,120.988,,,0,,0
"LTFRB_1676",,"Taft Ave, Manila",,14.5742,120.989,,,0,,0
"LTFRB_1677",,"President Quirino Ave / Taft Ave Intersection, Manila",,14.5703445188,120.9919166565,,,0,,0
"LTFRB_1678",,"Gen M Malvar / Luis Maria Guerero St Intersection, Manila",,14.5737,120.987,,,0,,0
"LTFRB_1679",,"Gen M Malvar / M Adriatico Intersection, Manila",,14.5725,120.985,,,0,,0
"LTFRB_168",,"Tawiran Road, Obando",,14.7403,120.914,,,0,,0
"LTFRB_1680",,"Remedios / Antonio Vasquez Intersection, Manila",,14.5717,120.989,,,0,,0
"LTFRB_1681",,"San Andres Market, San Andres / Leveriza Intersection, Manila",,14.5698,120.989,,,0,,0
"LTFRB_1682",,"M Adriatico / San Andres Intersection, Manila",,14.569,120.987,,,0,,0
"LTFRB_1683",,"A.Mabini, Manila",,14.5669,120.986,,,0,,0
"LTFRB_1684",,"Hospital, Marcelo H. del Pilar / President Quirino Ave Intersection, Manila",,14.565,120.986,,,0,,0
"LTFRB_1685",,"President Quirino Ave / Madre Ignacia Intersection, Manila",,14.5658,120.988,,,0,,0
"LTFRB_1686",,"Malate Catholic School - Boys Department, Madre Ignacia, Manila",,14.5681,120.986,,,0,,0
"LTFRB_1687",,"President Quirino Ave / Leveriza Intersection, Manila",,14.5679,120.99,,,0,,0
"LTFRB_1688",,"Remedios / Jorge Bocobo Intersection, Manila",,14.5705,120.987,,,0,,0
"LTFRB_1689",,"Leon Guinto Sr., Manila",,14.5742,120.991,,,0,,0
"LTFRB_169",,"Tawiran Elementary School, Obando",,14.7451,120.911,,,0,,0
"LTFRB_1690",,"Leon Guinto Sr., Manila",,14.5719,120.992,,,0,,0
"LTFRB_1691",,"Leon Guinto Sr / C.Aragon Intersection., Manila",,14.5693,120.993,,,0,,0
"LTFRB_1692",,"Leon Guinto Sr., Manila",,14.5672,120.994,,,0,,0
"LTFRB_1693",,"Leon Guinto Sr. / Estrada",,14.5647,120.995,,,0,,0
"LTFRB_1694",,"Taft Avenue / Pablo Ocampo Sreet, Avenue, Manila",,14.563,120.996,,,0,,0
"LTFRB_1695",,"Pablo Ocampo Sreet Avenue, Manila",,14.5615,120.994,,,0,,0
"LTFRB_1696",,"Taft Avenue, Manila",,14.5651,120.994,,,0,,0
"LTFRB_1697",,"Taft Avenue, Manila",,14.5682,120.992,,,0,,0
"LTFRB_1698",,"Leveriza, Manila",,14.5649,120.991,,,0,,0
"LTFRB_1699",,"Rizal Memorial Track and Football Stadium, M Adriatico, Manila",,14.5631,120.991,,,0,,0
"LTFRB_17",,"RAF Motorcycle, MacArthur Highway, Bocaue, Bulacan",,14.7914,120.932,,,0,,0
"LTFRB_170",,"Obando Grill, J. P Rizal, Obando",,14.7047,120.941,,,0,,0
"LTFRB_1700",,"Hotel Victoria, M Adriatico, Manila",,14.5671,120.988,,,0,,0
"LTFRB_1701",,"Hospital, A.Mabini, Manila",,14.563,120.988,,,0,,0
"LTFRB_1702",,"Century Park, Un-named road near A.Mabini, Manila",,14.5614,120.99,,,0,,0
"LTFRB_1703",,"HP Village Square, Pablo Ocampo Sr., Manila",,14.5602,120.99,,,0,,0
"LTFRB_1704",,"Roxas Blvd / Pablo Ocampo Sr., Manila",,14.5596,120.987,,,0,,0
"LTFRB_1705",,"Pedro Bukaneg, Manila",,14.558,120.984,,,0,,0
"LTFRB_1706",,"Pedro Bukaneg, Manila",,14.5567,120.982,,,0,,0
"LTFRB_1707",,"Vicente Sotto, Lungsod ng Pasay, Manila",,14.5547,120.981,,,0,,0
"LTFRB_1708",,"Atang Dela Rama, Lungsod ng Pasay, Manila",,14.5516,120.983,,,0,,0
"LTFRB_1709",,"Atang Dela Rama, Lungsod ng Pasay, Manila",,14.5486,120.983,,,0,,0
"LTFRB_171",,"J. P Rizal, Obando",,14.7013,120.944,,,0,,0
"LTFRB_1710",,"Jose Diokno Blvd, Lungsod ng Pasay, Manila",,14.5462,120.982,,,0,,0
"LTFRB_1711",,"Senator Gil Puyat Ave, Lungsod ng Pasay, Manila",,14.5517,120.987,,,0,,0
"LTFRB_1712",,"Senator Gil Puyat Ave, Lungsod ng Pasay, Manila",,14.5529,120.992,,,0,,0
"LTFRB_1713",,"Senator Gil Puyat Ave, Lungsod ng Pasay, Manila",,14.5536,120.996,,,0,,0
"LTFRB_1714",,"Senator Gil Puyat Ave, Makati City",,14.5549,121,,,0,,0
"LTFRB_1715",,"Sinciego / F.B. Harrison St Intersection, Lungsod ng Pasay, Makati City",,14.5567,120.991,,,0,,0
"LTFRB_1716",,"Leveriza, Lungsod ng Pasay",,14.5561,120.994,,,0,,0
"LTFRB_1717",,"Menlo / Leveriza Intersection, Lungsod ng Pasay",,14.5597,120.993,,,0,,0
"LTFRB_1718",,"Donada, Lungsod ng Pasay",,14.5589,120.995,,,0,,0
"LTFRB_1719",,"Donada / San Juan Intersection, Lungsod ng Pasay",,14.5557,120.996,,,0,,0
"LTFRB_172",,"J. P Rizal, Obando",,14.6992,120.946,,,0,,0
"LTFRB_1720",,"San Juan, Lungsod ng Pasay",,14.5545,120.993,,,0,,0
"LTFRB_1721",,"Leveriza, Lungsod ng Pasay",,14.5524,120.995,,,0,,0
"LTFRB_1722",,"M.Santos / F.B. Harrison St Intersection, Lungsod ng Pasay",,14.5504,120.993,,,0,,0
"LTFRB_1723",,"Taft Ave / College Rd Intersection, Lungsod ng Pasay",,14.5502,120.998,,,0,,0
"LTFRB_1724",,"Burgos Street, Lungsod ng Pasay",,14.5504,121,,,0,,0
"LTFRB_1725",,"Burgos Street, Lungsod ng Pasay",,14.5538,120.999,,,0,,0
"LTFRB_1726",,"Dominga St, Lungsod ng Pasay",,14.5572,120.998,,,0,,0
"LTFRB_1727",,"Dominga St, Lungsod ng Pasay",,14.5605,120.997,,,0,,0
"LTFRB_1728",,"Taft Ave, Lungsod ng Pasay",,14.5602,120.996,,,0,,0
"LTFRB_1729",,"Taft Ave, Lungsod ng Pasay",,14.5577,120.996,,,0,,0
"LTFRB_173",,"Flamengco Street, Malabon City",,14.7036,120.942,,,0,,0
"LTFRB_1730",,"Taft Ave, Lungsod ng Pasay",,14.5551,120.997,,,0,,0
"LTFRB_1731",,"Harrison St, Manila",,14.5478,120.993,,,0,,0
"LTFRB_1732",,"Antonio Arnaiz Ave / F.B. Harrison St Intersection",,14.5462,120.994,,,0,,0
"LTFRB_1733",,"F.B. Harrison St, Lungsod ng Pasay",,14.5441,120.994,,,0,,0
"LTFRB_1734",,"F.B. Harrison St, Lungsod ng Pasay",,14.5418,120.995,,,0,,0
"LTFRB_1735",,"F.B. Harrison St / Ignacio, Lungsod ng Pasay",,14.5395,120.995,,,0,,0
"LTFRB_1736",,"Epifanio de los Santos Avenue / F.B. Harrison St Intersection, Lungsod ng Pasay",,14.5379,120.996,,,0,,0
"LTFRB_1737",,"Epifanio de los Santos Avenue, Lungsod ng Pasay",,14.5373,120.993,,,0,,0
"LTFRB_1738",,"Epifanio de los Santos Avenue, Diosdado Macapagal Blvd, Lungsod ng Pasay",,14.5366,120.99,,,0,,0
"LTFRB_1739",,"Epifanio de los Santos Avenue, Lungsod ng Pasay",,14.5357,120.986,,,0,,0
"LTFRB_174",,"Panghulo Chapel, Flamengco Street, Malabon City",,14.6974,120.948,,,0,,0
"LTFRB_1740",,"Jose Diokno Blvd, Lungsod ng Pasay",,14.5372,120.984,,,0,,0
"LTFRB_1741",,"Marina Way, Lungsod ng Pasay",,14.5333,120.985,,,0,,0
"LTFRB_1742",,"Epifanio de los Santos Avenue, Lungsod ng Pasay",,14.5376,121,,,0,,0
"LTFRB_1743",,"Taft Ave, Lungsod ng Pasay",,14.5397,121,,,0,,0
"LTFRB_1744",,"Taft Ave, Lungsod ng Pasay",,14.5427,121,,,0,,0
"LTFRB_1745",,"Taft Ave, Lungsod ng Pasay",,14.5462,120.999,,,0,,0
"LTFRB_1746",,"Park Ave, Lungsod ng Pasay",,14.5456,120.997,,,0,,0
"LTFRB_1747",,"Park Ave, Lungsod ng Pasay",,14.5419,120.998,,,0,,0
"LTFRB_1748",,"Park Ave, Lungsod ng Pasay",,14.5389,120.998,,,0,,0
"LTFRB_1749",,"Leveriza, Lungsod ng Pasay",,14.5492,120.996,,,0,,0
"LTFRB_175",,"Flamengco Street / F. Navarette Street Intersection, Malabon City",,14.6948,120.95,,,0,,0
"LTFRB_1750",,"P. Villanueva, Lungsod ng Pasay",,14.5473,120.998,,,0,,0
"LTFRB_1751",,"Tengco, Lungsod ng Pasay",,14.5466,121.001,,,0,,0
"LTFRB_1752",,"L.Francisco, Lungsod ng Pasay",,14.5412,121.002,,,0,,0
"LTFRB_1753",,"P.Zamora, Lungsod ng Pasay",,14.5382,121.001,,,0,,0
"LTFRB_1754",,"Tramo, Lungsod ng Pasay",,14.5381,121.003,,,0,,0
"LTFRB_1755",,"Tramo, Lungsod ng Pasay",,14.5406,121.003,,,0,,0
"LTFRB_1756",,"Celeridad / Celeridad",,14.5445,121.003,,,0,,0
"LTFRB_1757",,"Tramo, Lungsod ng Pasay",,14.5475,121.002,,,0,,0
"LTFRB_1758",,"Celeridad / P.Zamora, Lungsod ng Pasay",,14.5443,121.001,,,0,,0
"LTFRB_1759",,"Tramo, Lungsod ng Pasay",,14.5423,121.003,,,0,,0
"LTFRB_176",,"F. Navarette Street, Malabon City",,14.6966,120.951,,,0,,0
"LTFRB_1760",,"Cabrera St, Lungsod ng Pasay",,14.5399,121.006,,,0,,0
"LTFRB_1761",,"Epifanio de los Santos Avenue, Lungsod ng Pasay",,14.5382,121.005,,,0,,0
"LTFRB_1762",,"Protacio St, Lungsod ng Pasay",,14.5431,121.006,,,0,,0
"LTFRB_1763",,"Tolentino St, Lungsod ng Pasay",,14.5454,121.006,,,0,,0
"LTFRB_1764",,"D.Jorge, Lungsod ng Pasay",,14.547,121.006,,,0,,0
"LTFRB_1765",,"Aurora / Tengco Intersection, Lungsod ng Pasay",,14.5471,121.004,,,0,,0
"LTFRB_1766",,"Park Ave, Lungsod ng Pasay",,14.544,120.997,,,0,,0
"LTFRB_1767",,"Park Ave, Lungsod ng Pasay",,14.5511,120.995,,,0,,0
"LTFRB_1768",,"Senator Gil Puyat Ave, Lungsod ng Pasay, Manila",,14.5523,120.99,,,0,,0
"LTFRB_1769",,"Mendiola / Legarda Intersection, Manila",,14.6003,120.991,,,0,,0
"LTFRB_177",,"F. Navarette Street / M.H Del Pilar Intersection,  Malabon City",,14.6979,120.953,,,0,,0
"LTFRB_1770",,"Manuel Quezon University, R Hidalgo, Manila",,14.5999,120.988,,,0,,0
"LTFRB_1771",,"Legarda, Manila",,14.5977,120.99,,,0,,0
"LTFRB_1772",,"Farnecio / Arlegui, Manila",,14.5955,120.989,,,0,,0
"LTFRB_1773",,"P. Casal, Manila",,14.5933,120.988,,,0,,0
"LTFRB_1774",,"Ayala Bridge, Manila",,14.5917,120.987,,,0,,0
"LTFRB_1775",,"Carlos Palanca Sr, Manila",,14.5935,120.986,,,0,,0
"LTFRB_1776",,"Carlos Palanca Sr, Manila",,14.5949,120.984,,,0,,0
"LTFRB_1777",,"Arlegui, Manila",,14.5968,120.987,,,0,,0
"LTFRB_1778",,"Quezon Blvd, Manila",,14.5974,120.984,,,0,,0
"LTFRB_1779",,"R Hidalgo, Manila",,14.5982,120.986,,,0,,0
"LTFRB_178",,"J. P Rizal / Decena, Obando",,14.6996,120.951,,,0,,0
"LTFRB_1780",,"Globo de Oro, Manila",,14.5962,120.985,,,0,,0
"LTFRB_1781",,"R Hidalgo, Manila",,14.5989,120.988,,,0,,0
"LTFRB_1782",,"Quezon Blvd, Manila",,14.5994,120.984,,,0,,0
"LTFRB_1783",,"Quezon Blvd, Manila",,14.6014,120.985,,,0,,0
"LTFRB_1784",,"Quezon Bridge, Manila",,14.5952,120.981,,,0,,0
"LTFRB_1785",,"Ayala Blvd, Manila",,14.5903,120.986,,,0,,0
"LTFRB_1786",,"Ayala Blvd, Manila",,14.5882,120.984,,,0,,0
"LTFRB_1787",,"Ayala Blvd, Manila",,14.5927,120.99,,,0,,0
"LTFRB_1788",,"Jose P Laurel Sr, Manila",,14.5927,120.992,,,0,,0
"LTFRB_1789",,"Aguado, Manila",,14.5945,120.993,,,0,,0
"LTFRB_179",,"Navarette Road, Malabon City",,14.6924,120.948,,,0,,0
"LTFRB_1790",,"Arlegui, Manila",,14.5965,120.991,,,0,,0
"LTFRB_1791",,"Tuberias, Manila",,14.5983,120.993,,,0,,0
"LTFRB_1792",,"Tuberias, Manila",,14.5989,120.996,,,0,,0
"LTFRB_1793",,"Tuberias, Manila",,14.5995,120.998,,,0,,0
"LTFRB_1794",,"Ramon Magsaysay Blvd, Manila",,14.6012,120.999,,,0,,0
"LTFRB_1795",,"Ramon Magsaysay Blvd, Manila",,14.6008,120.995,,,0,,0
"LTFRB_1796",,"Jollibee Figueras Legarda / Bustillos Intersection, Manila",,14.6017,120.993,,,0,,0
"LTFRB_1797",,"M. Earnshaw, Manila",,14.6041,120.993,,,0,,0
"LTFRB_1798",,"F. Jhocson, Manila",,14.6055,120.995,,,0,,0
"LTFRB_1799",,"G. Tuazon, Manila",,14.6034,120.997,,,0,,0
"LTFRB_18",,"Jesus Is Lord College and Prayer Garden, Bocaue, Bulacan",,14.7867,120.932,,,0,,0
"LTFRB_180",,"Navarette Road, Malabon City",,14.6902,120.947,,,0,,0
"LTFRB_1800",,"M. Arenas, Manila",,14.6029,120.995,,,0,,0
"LTFRB_1801",,"Arsenio H. Lacson Ave, Manila",,14.6057,120.997,,,0,,0
"LTFRB_1802",,"Arsenio H. Lacson Ave / J. Fajardo Intersection, Manila",,14.6076,120.995,,,0,,0
"LTFRB_1803",,"F. Cayco, Manila",,14.6074,120.993,,,0,,0
"LTFRB_1804",,"Sergio H. Loyola St, Manila",,14.6056,120.991,,,0,,0
"LTFRB_1805",,"R.Papa, Manila",,14.6031,120.989,,,0,,0
"LTFRB_1806",,"G Tuazon, Manila",,14.6045,120.999,,,0,,0
"LTFRB_1807",,"G Tuazon / Vicente G Cruz Intersection, Manila",,14.6056,121.001,,,0,,0
"LTFRB_1808",,"Vicente G Cruz, Manila",,14.6078,120.999,,,0,,0
"LTFRB_1809",,"M. dela Fuente, Manila",,14.6064,120.999,,,0,,0
"LTFRB_181",,"Don Bastilio Bautista Boulevard, Malabon City",,14.6885,120.945,,,0,,0
"LTFRB_1810",,"M. dela Fuente, Manila",,14.6095,120.996,,,0,,0
"LTFRB_1811",,"Vicente G Cruz, Manila",,14.6102,120.997,,,0,,0
"LTFRB_1812",,"G Tuazon, Manila",,14.6068,121.003,,,0,,0
"LTFRB_1813",,"G Tuazon / Masbate Intersection, Manila",,14.6087,121.004,,,0,,0
"LTFRB_1814",,"G Tuazon / Gerardo Intersection, Manila",,14.6109,121.005,,,0,,0
"LTFRB_1815",,"G Tuazon / Bataan Intersection, Manila",,14.6122,121.007,,,0,,0
"LTFRB_1816",,"G Tuazon / Union Civica Intersection, Manila",,14.6137,121.008,,,0,,0
"LTFRB_1817",,"Unang Hakbang / Luzon Ave",,14.6121,121.009,,,0,,0
"LTFRB_1818",,"Ramon Magsaysay Blvd, Manila",,14.6016,121.002,,,0,,0
"LTFRB_1819",,"Lardizabal, Manila",,14.603,121.001,,,0,,0
"LTFRB_182",,"Don Bastilio Bautista Boulevard, Malabon City",,14.6864,120.944,,,0,,0
"LTFRB_1820",,"Pureza Extension / Ramon Magsaysay Blvd Intersection, Manila",,14.6019,121.004,,,0,,0
"LTFRB_1821",,"Paltok / Ramon Magsaysay Blvd Intersection, Manila",,14.6023,121.008,,,0,,0
"LTFRB_1822",,"Ramon Magsaysay Blvd / Altura Intersection, Manila",,14.6023,121.01,,,0,,0
"LTFRB_1823",,"Manga Ave / Buenos Aires Street Intersection, Manila",,14.6032,121.012,,,0,,0
"LTFRB_1824",,"A Santol / Sociego Intersection, Manila",,14.604,121.014,,,0,,0
"LTFRB_1825",,"L Roces, Quezon City",,14.6072,121.014,,,0,,0
"LTFRB_1826",,"A Santol / San Cristobal, Quezon City",,14.6101,121.013,,,0,,0
"LTFRB_1827",,"Casiama, Quezon City",,14.6126,121.013,,,0,,0
"LTFRB_1828",,"Bayani, Quezon City",,14.6147,121.012,,,0,,0
"LTFRB_1829",,"Blak na Bato, Quezon City",,14.6139,121.011,,,0,,0
"LTFRB_183",,"Don Bastilio Bautista Boulevard, Malabon City",,14.6846,120.943,,,0,,0
"LTFRB_1830",,"Ramon Magsaysay Blvd, Manila",,14.6027,121.015,,,0,,0
"LTFRB_1831",,"Sociego, Quezon City",,14.6041,121.017,,,0,,0
"LTFRB_1832",,"Aurora Blvd, Quezon City",,14.6058,121.019,,,0,,0
"LTFRB_1833",,"Gregorio Araneta Ave, Quezon City",,14.6079,121.017,,,0,,0
"LTFRB_1834",,"Kapiligan / Guirayan, Quezon City",,14.6074,121.019,,,0,,0
"LTFRB_1835",,"Landargun / Gregorio Araneta Ave Intersection, Quezon City",,14.6114,121.017,,,0,,0
"LTFRB_1836",,"Gregorio Araneta Ave, Quezon City",,14.6148,121.017,,,0,,0
"LTFRB_1837",,"Gregorio Araneta Ave, Quezon City",,14.6173,121.016,,,0,,0
"LTFRB_1838",,"Aurora Blvd, Quezon City",,14.6075,121.02,,,0,,0
"LTFRB_1839",,"Ramon Magsaysay Blvd, Manila",,14.6092,121.022,,,0,,0
"LTFRB_184",,"Sto Rosario Parish, Don Bastilio Bautista Boulevard, Malabon City",,14.6836,120.942,,,0,,0
"LTFRB_1840",,"S.Veloso / Aurora Blvd Intersection, San Juan",,14.6102,121.024,,,0,,0
"LTFRB_1841",,"Ramon Magsaysay Blvd, Manila",,14.6111,121.027,,,0,,0
"LTFRB_1842",,"Ramon Magsaysay Blvd, Manila",,14.6123,121.031,,,0,,0
"LTFRB_1843",,"Guadalcanal St, Manila",,14.6007,121.017,,,0,,0
"LTFRB_1844",,"Valenzuela Extension / Victorio Mapa Blvd",,14.5977,121.018,,,0,,0
"LTFRB_1845",,"Old Sta. Mesa, Manila",,14.5996,121.015,,,0,,0
"LTFRB_1846",,"Internet Cafe, Old Sta. Mesa, Manila",,14.6011,121.013,,,0,,0
"LTFRB_1847",,"City Oil, Old Sta. Mesa, Manila",,14.601,121.02,,,0,,0
"LTFRB_1848",,"N.Domingo / San Perfecto Intersection, Manila",,14.6029,121.021,,,0,,0
"LTFRB_1849",,"F. Blumentritt / N.Domingo Intersection, Manila",,14.6048,121.023,,,0,,0
"LTFRB_185",,"Don Bastilio Bautista Boulevard / Gov. Andres Gabriel Intersection Malabon City",,14.6804,120.941,,,0,,0
"LTFRB_1850",,"N.Domingo,  San Juan, Manila",,14.6068,121.025,,,0,,0
"LTFRB_1851",,"Corazon De Jesus / N.Domingo, Manila",,14.6085,121.029,,,0,,0
"LTFRB_1852",,"Pinaglabanan, San Juan, Manila",,14.6054,121.028,,,0,,0
"LTFRB_1853",,"Victorio Mapa Blvd, Manila",,14.5959,121.02,,,0,,0
"LTFRB_1854",,"P. Sanchez St, Manila",,14.5953,121.023,,,0,,0
"LTFRB_1855",,"Valenzuela, Manila",,14.598,121.015,,,0,,0
"LTFRB_1856",,"Cordillera, Manila",,14.5963,121.015,,,0,,0
"LTFRB_1857",,"Lubiran, Manila",,14.5939,121.017,,,0,,0
"LTFRB_1858",,"Mag J A santos, Manila",,14.5919,121.02,,,0,,0
"LTFRB_1859",,"Bacood, Manila",,14.5899,121.02,,,0,,0
"LTFRB_186",,"Heath Centre, Don Bastilio Bautista Boulevard, Malabon City",,14.678,120.942,,,0,,0
"LTFRB_1860",,"Bacood / Dalisay Intersection, Manila",,14.5895,121.017,,,0,,0
"LTFRB_1861",,"P. Sanchez St, Manila",,14.5942,121.026,,,0,,0
"LTFRB_1862",,"Daang Bakal / New Panaderos Extension Intersection, Manila",,14.5921,121.026,,,0,,0
"LTFRB_1863",,"New Panaderos Extension / 34 Rte Rev. G. Aglipay Intersection, Mandaluyong City",,14.5897,121.023,,,0,,0
"LTFRB_1864",,"New Panaderos / Castaeda Intersection, Manila",,14.5874,121.021,,,0,,0
"LTFRB_1865",,"F Y Manalo, Manila",,14.5875,121.017,,,0,,0
"LTFRB_1866",,"F Y Manalo, Manila",,14.5872,121.014,,,0,,0
"LTFRB_1867",,"F Y Manalo, Manila",,14.586,121.012,,,0,,0
"LTFRB_1868",,"Lamayan / New Panaderos Intersection, Manila",,14.5847,121.018,,,0,,0
"LTFRB_1869",,"New Panaderos / Old Panaderos Intersection, Manila",,14.582,121.013,,,0,,0
"LTFRB_187",,"Malabon National High School, Don Bastilio Bautista Boulevard, Malabon City",,14.6767,120.942,,,0,,0
"LTFRB_1870",,"Pedro Gil, Manila",,14.5808,121.01,,,0,,0
"LTFRB_1871",,"Pedro Gil / Felix Intersection, Manila",,14.5798,121.006,,,0,,0
"LTFRB_1872",,"La Concordia College, Pedro Gil, Manila",,14.5791,121.003,,,0,,0
"LTFRB_1873",,"Pedro Gil / Fabie Intersection, Manila",,14.5787,121,,,0,,0
"LTFRB_1874",,"Pedro Gil / Union Intersection, Manila",,14.5788,120.997,,,0,,0
"LTFRB_1875",,"Perdigon / Penafrancia Intersection, Manila",,14.5801,120.997,,,0,,0
"LTFRB_1876",,"Plaza Dilao Rd, Manila",,14.581,121,,,0,,0
"LTFRB_1877",,"President Quirino Ave, Manila",,14.578,120.998,,,0,,0
"LTFRB_1878",,"Angel Linao / Pedro Gil",,14.5782,120.993,,,0,,0
"LTFRB_1879",,"Pedro Gil, Manila",,14.58,120.989,,,0,,0
"LTFRB_188",,"Tanchoco General Hospital, Don Bastilio Bautista Boulevard, Malabon City",,14.6756,120.943,,,0,,0
"LTFRB_1880",,"San Gregorio Bridge, Manila",,14.5809,120.992,,,0,,0
"LTFRB_1881",,"San Gregorio / Paz St, Manila",,14.5814,120.995,,,0,,0
"LTFRB_1882",,"President Quirino Ave. Ext / Paz St Intersection, Manila",,14.5846,120.995,,,0,,0
"LTFRB_1883",,"President Quirino Ave. Ext, Manila",,14.5826,120.997,,,0,,0
"LTFRB_1884",,"J. Zamora St / Burgos Intersection, Manila",,14.5842,120.999,,,0,,0
"LTFRB_1885",,"President Quirino Ave / J. Zamora St, Manila",,14.5862,121.002,,,0,,0
"LTFRB_1887",,"Industria / Hilum Intersection, Manila",,14.5897,121.003,,,0,,0
"LTFRB_1888",,"Jesus, Manila",,14.5929,121.004,,,0,,0
"LTFRB_1889",,"Palumpong / Beata Intersection, Manila",,14.5908,121.006,,,0,,0
"LTFRB_189",,"Don Bastilio Bautista Boulevard / A. Bonifacio Street, Malabon City",,14.6734,120.944,,,0,,0
"LTFRB_1890",,"Beata, Manila",,14.5911,121.008,,,0,,0
"LTFRB_1891",,"Lorenzo Dela Paz / Baretto Intersection, Manila",,14.5907,121.011,,,0,,0
"LTFRB_1892",,"Lorenzo Dela Paz, Manila",,14.5911,121.013,,,0,,0
"LTFRB_1893",,"Robinson's Place - Otis, Manila",,14.5872,120.995,,,0,,0
"LTFRB_1894",,"Paz Mendoza Guazon, Manila",,14.5897,120.997,,,0,,0
"LTFRB_1895",,"Paz Mendoza Guazon, Manila",,14.5922,121,,,0,,0
"LTFRB_1896",,"Nagtahan Bridge, Manila",,14.5943,121.002,,,0,,0
"LTFRB_1897",,"Nagtahan Bridge, Manila",,14.5972,121.001,,,0,,0
"LTFRB_1898",,"Nagtahan Flyover / Duhat Intersection, Manila",,14.5998,121,,,0,,0
"LTFRB_1899",,"President Quirino Ave / Angel Linao Intersection, Manila",,14.5745,120.995,,,0,,0
"LTFRB_19",,"Mt. Carmel Medical Center, MacArthur Highway, Bocaue, Bulacan",,14.7842,120.933,,,0,,0
"LTFRB_190",,"Malabon Elementary School, N Naval, Malabon City",,14.6769,120.942,,,0,,0
"LTFRB_1900",,"South Luzon Expressway, Manila",,14.5726,121,,,0,,0
"LTFRB_1901",,"Singalong, Manila",,14.5714,120.995,,,0,,0
"LTFRB_1902",,"Julio Nakpil, Manila",,14.5756,120.993,,,0,,0
"LTFRB_1903",,"Gen M Malvar, Manila",,14.5758,120.991,,,0,,0
"LTFRB_1904",,"Agusto Francisco, Manila",,14.574,121.004,,,0,,0
"LTFRB_1905",,"Agusto Francisco / Pasig Line Intersection, Manila",,14.5776,121.007,,,0,,0
"LTFRB_1906",,"Revellin, Manila",,14.5772,121.011,,,0,,0
"LTFRB_1907",,"Estrada / Arellano Ave Intersection, Manila",,14.566,120.998,,,0,,0
"LTFRB_1908",,"Dian / Pablo Ocampo Sr. Intersection, Manila",,14.5651,121,,,0,,0
"LTFRB_1909",,"Arellano Ave / Estrada Intersection, Manila",,14.562,120.999,,,0,,0
"LTFRB_191",,"N Naval, Malabon City",,14.6756,120.942,,,0,,0
"LTFRB_1910",,"Enrique / Dian Intersection, Manila",,14.5615,121.003,,,0,,0
"LTFRB_1911",,"Zobel Roxas Ave / Madre Perla Intersection, Manila",,14.567,121.004,,,0,,0
"LTFRB_1912",,"Caton / Zobel Roxas Ave Intersection, Manila",,14.5691,121.006,,,0,,0
"LTFRB_1913",,"Kamagong / Sampaloc Intersection, Manila",,14.5663,121.009,,,0,,0
"LTFRB_1914",,"Kamagong / Don Chino Roces Avenue Intersection, Manila",,14.5659,121.013,,,0,,0
"LTFRB_1915",,"Caton / Pablo Ocampo Sr. Extension Intersection, Makati City",,14.5672,121.007,,,0,,0
"LTFRB_1916",,"Pablo Ocampo Sr. / G.Del Pilar, Manila",,14.5661,121.002,,,0,,0
"LTFRB_1917",,"Dayap / Dian Intersection, Manila",,14.558,121.004,,,0,,0
"LTFRB_1918",,"Finlandia / Dian Intersection, Manila",,14.5554,121.004,,,0,,0
"LTFRB_1919",,"Rockefeller / Edison Intersection, Makati City",,14.5523,121.005,,,0,,0
"LTFRB_192",,"N Naval, Malabon City",,14.6746,120.943,,,0,,0
"LTFRB_1920",,"Edison / Faraday Intersection, Makati City",,14.5538,121.003,,,0,,0
"LTFRB_1921",,"A. Arnaiz Ave / Batangas, Manila",,14.5503,121.008,,,0,,0
"LTFRB_1922",,"A. Arnaiz Ave, Makati City",,14.5511,121.01,,,0,,0
"LTFRB_1923",,"D.Jorge / Lerma, Lungsod ng Pasay, Manila",,14.5475,121.009,,,0,,0
"LTFRB_1924",,"A. Arnaiz Ave / Hidalgo, Lungsod ng Pasay, Manila",,14.549,121.004,,,0,,0
"LTFRB_1925",,"Antonio Arnaiz Ave / P.Zamora Intersection, Manila",,14.5481,121.001,,,0,,0
"LTFRB_1926",,"A. Arnaiz Ave / Don Chino Roces Avenue Intersection, Makati City",,14.5515,121.014,,,0,,0
"LTFRB_1927",,"V.A. Rufino St / Don Chino Roces Avenue Intersection, Makati City",,14.5551,121.014,,,0,,0
"LTFRB_1928",,"Dela Rosa Street / Don Chino Roces Avenue Intersection, Makati City",,14.5583,121.013,,,0,,0
"LTFRB_1929",,"Senator Gil Puyat Ave / Washington Intersection, Makati City",,14.5588,121.01,,,0,,0
"LTFRB_193",,"N Naval, Malabon City",,14.6734,120.943,,,0,,0
"LTFRB_1930",,"Senator Gil Puyat Ave, Makati City",,14.5571,121.006,,,0,,0
"LTFRB_1931",,"Washington / E.Jacinto Intersection, Makati City",,14.5566,121.011,,,0,,0
"LTFRB_1932",,"Urban Ave, Makati City",,14.559,121.011,,,0,,0
"LTFRB_1933",,"Senator Gil Puyat Ave, Makati City",,14.5603,121.013,,,0,,0
"LTFRB_1934",,"Ayala Ave / Senator Gil Puyat Ave Intersection, Makati City",,14.5613,121.016,,,0,,0
"LTFRB_1935",,"Don Chino Roces Avenue / Pryce Center, Makati City",,14.5626,121.011,,,0,,0
"LTFRB_1936",,"M. dela Cruz St / Esguerra St Intersection, Lungsod ng Pasay, Manila",,14.5483,121.007,,,0,,0
"LTFRB_1937",,"M. dela Cruz St / 16th De Agosto Intersection, Lungsod ng Pasay, Manila",,14.5465,121.007,,,0,,0
"LTFRB_1938",,"M. dela Cruz St, Lungsod ng Pasay, Manila",,14.5449,121.007,,,0,,0
"LTFRB_1939",,"M. dela Cruz St, Lungsod ng Pasay, Manila",,14.5434,121.008,,,0,,0
"LTFRB_194",,"Seventh Day Adventist Church",,14.6767,120.944,,,0,,0
"LTFRB_1940",,"Calhoun / Evangelista Intersection, Makati City",,14.5489,121.011,,,0,,0
"LTFRB_1941",,"Gen. Mascardo / Evangelista Intersection, Makati City",,14.5469,121.011,,,0,,0
"LTFRB_1942",,"General Luna / Evangelista Intersection, Makati City",,14.5448,121.011,,,0,,0
"LTFRB_1943",,"Gen.J.Cailles / Evangelista Intersection, Makati City",,14.5412,121.012,,,0,,0
"LTFRB_1944",,"Gen. M. Hizon / Evangelista Intersection, Makati City",,14.5429,121.012,,,0,,0
"LTFRB_1945",,"Capt. M. Reyes, Makati City, Manila",,14.541,121.011,,,0,,0
"LTFRB_1946",,"Capt. M. Reyes, Makati City, Manila",,14.5435,121.01,,,0,,0
"LTFRB_1947",,"Capt. M. Reyes, Makati City, Manila",,14.5462,121.01,,,0,,0
"LTFRB_1948",,"Capt. M. Reyes / Mayor J. Arguelles Intersection, Makati City, Manila",,14.5492,121.01,,,0,,0
"LTFRB_1949",,"Epifanio de los Santos Avenue, Lungsod ng Makati, Manila",,14.5385,121.008,,,0,,0
"LTFRB_195",,"General Luma Street, Malabon City",,14.6742,120.945,,,0,,0
"LTFRB_1950",,"Epifanio de los Santos Avenue, Lungsod ng Makati, Manila",,14.539,121.012,,,0,,0
"LTFRB_1951",,"Epifanio de los Santos Avenue, Lungsod ng Makati, Manila",,14.5396,121.015,,,0,,0
"LTFRB_1952",,"Epifanio de los Santos Avenue / Skyway , Lungsod ng Makati, Manila",,14.5405,121.017,,,0,,0
"LTFRB_1953",,"Gen.J.Belarmino / Rodriguez Ave Intersection, Makati, Manila",,14.5408,121.015,,,0,,0
"LTFRB_1954",,"Skyway, Makati City, Manila",,14.5425,121.016,,,0,,0
"LTFRB_1955",,"Skyway, Makati City, Manila",,14.5447,121.015,,,0,,0
"LTFRB_1956",,"Skyway, Makati City, Manila",,14.5464,121.014,,,0,,0
"LTFRB_1957",,"A.Apolinario / General Luna Intersection, Makati City, Manila",,14.5451,121.013,,,0,,0
"LTFRB_1958",,"A.Apolinario / Gen.P.Garcia Intersection, Makati City, Manila",,14.5427,121.013,,,0,,0
"LTFRB_1959",,"Skyway, Makati City, Manila",,14.5491,121.012,,,0,,0
"LTFRB_196",,"General Luma Street / Ilang Ilang Intersection, Malabon City",,14.6717,120.946,,,0,,0
"LTFRB_1960",,"Chino Roces Ave, Makati City, Manila",,14.5485,121.014,,,0,,0
"LTFRB_1961",,"Sabio St / Chino Roces Ave Intersection, Makati City, Manila",,14.5442,121.017,,,0,,0
"LTFRB_1962",,"Estacion, Makati City, Manila",,14.5494,121.013,,,0,,0
"LTFRB_1963",,"A. Arnaiz Ave / Pasay Road Intersection, Makati City, Manila",,14.5513,121.017,,,0,,0
"LTFRB_1964",,"Paseo de Roxas / Pasay Road Intersection, Makati City, Manila",,14.551,121.019,,,0,,0
"LTFRB_1965",,"J.Victor / Mc Kinley Intersection, Makati City, Manila",,14.5536,121.013,,,0,,0
"LTFRB_1966",,"J.Victor, Makati City, Manila",,14.5519,121.013,,,0,,0
"LTFRB_1967",,"Amorsolo Street, Makati City, Manila",,14.5534,121.015,,,0,,0
"LTFRB_1968",,"Makati Ave / A. Arnaiz Ave, Makati City, Manila",,14.5507,121.022,,,0,,0
"LTFRB_1969",,"Makati Ave / North Dr Intersection, Makati City, Manila",,14.5529,121.023,,,0,,0
"LTFRB_1970",,"Makati Ave / Ayala Avenue Intersection, Makati City, Manila",,14.5548,121.024,,,0,,0
"LTFRB_1971",,"Paseo de Roxas / Ayala Avenue Intersection, Makati City, Manila",,14.5568,121.021,,,0,,0
"LTFRB_1972",,"Paseo de Roxas, Makati City, Manila",,14.5542,121.019,,,0,,0
"LTFRB_1973",,"Ayala Ave, Makati City, Manila",,14.5583,121.019,,,0,,0
"LTFRB_1974",,"Ayala Ave, Makati City, Manila",,14.5597,121.017,,,0,,0
"LTFRB_1975",,"Senator Gil Puyat Ave, Makati City, Manila",,14.5619,121.02,,,0,,0
"LTFRB_1976",,"Senator Gil Puyat Ave, Makati City, Manila",,14.5622,121.025,,,0,,0
"LTFRB_1977",,"Senator Gil Puyat Ave / Makati Avenue Intersection, Makati City, Manila",,14.5615,121.028,,,0,,0
"LTFRB_1978",,"Makati Ave / Paseo de Roxas Intersection, Makati City, Manila",,14.5584,121.026,,,0,,0
"LTFRB_1979",,"Ayala Ave, Makati City, Manila",,14.553,121.027,,,0,,0
"LTFRB_198",,"Don Bastilio Bautista Boulevard / Bernado Intersection, Malabon City",,14.6701,120.947,,,0,,0
"LTFRB_1980",,"Ayala Ave, Makati City, Manila",,14.5514,121.028,,,0,,0
"LTFRB_1981",,"Epifanio de los Santos Avenue / McKinley Rd Intersection, Makati City, Manila",,14.5503,121.029,,,0,,0
"LTFRB_1982",,"Paseo de Roxas / Senator Gil Puyat Ave Intersection, Makati City, Manila",,14.5597,121.031,,,0,,0
"LTFRB_1983",,"Senator Gil Puyat Ave, Makati City, Manila",,14.5576,121.033,,,0,,0
"LTFRB_1984",,"Epifanio de los Santos Avenue / Senator Gil Puyat Ave, Makati City, Manila",,14.555,121.035,,,0,,0
"LTFRB_1985",,"Astra / Jupiter Intersection, Makati City, Manila",,14.5588,121.033,,,0,,0
"LTFRB_1986",,"Canopus / Jupiter Intersection, Makati City, Manila",,14.5566,121.035,,,0,,0
"LTFRB_1987",,"Kalayaan Flyover, Makati City, Manila",,14.5568,121.037,,,0,,0
"LTFRB_1988",,"Estrella Flyover, Makati City, Manila",,14.5585,121.039,,,0,,0
"LTFRB_1989",,"Estrella Flyover, Makati City, Manila",,14.5602,121.041,,,0,,0
"LTFRB_199",,"Don Bastilio Bautista Boulevard / Gov. W. Pascual Avenue, Malabon City",,14.6697,120.947,,,0,,0
"LTFRB_1990",,"Epifanio de los Santos Avenue, Makati City, Manila",,14.5621,121.043,,,0,,0
"LTFRB_1991",,"Epifanio de los Santos Avenue, Makati City, Manila",,14.5646,121.045,,,0,,0
"LTFRB_1992",,"Epifanio de los Santos Avenue, Makati City, Manila",,14.5671,121.046,,,0,,0
"LTFRB_1993",,"J.P. Rizal Ave, Makati City, Manila",,14.5731,121.014,,,0,,0
"LTFRB_1994",,"Tejeron, Makati City, Manila",,14.5751,121.012,,,0,,0
"LTFRB_1995",,"A. Reyes Ave / J.P. Rizal Ave Intersection, Makati City, Manila",,14.5719,121.016,,,0,,0
"LTFRB_1996",,"A. Reyes Ave, Makati City, Manila",,14.5736,121.016,,,0,,0
"LTFRB_1997",,"Ponte / Don Chino Roces Avenue Intersection, Makati City, Manila",,14.5695,121.015,,,0,,0
"LTFRB_1998",,"Don Chino Roces Avenue, Makati City, Manila",,14.5676,121.013,,,0,,0
"LTFRB_1999",,"Kakarong / J.P. Rizal Ave Intersection, Makati City, Manila",,14.5714,121.018,,,0,,0
"LTFRB_2",,"STI College, MacArthur Highway, Balagtas",,14.8229,120.901,,,0,,0
"LTFRB_20",,"MN Commerical Complex, MacArthur Highway, Bocaue, Bulacan",,14.7811,120.935,,,0,,0
"LTFRB_200",,"C. Arellano Road, Malabon City",,14.6691,120.946,,,0,,0
"LTFRB_2000",,"J.P. Rizal Ave / Honradez Intersection, Makati City, Manila",,14.5707,121.021,,,0,,0
"LTFRB_2001",,"Pililla / J.P. Rizal Ave, Makati City, Manila",,14.57,121.023,,,0,,0
"LTFRB_2002",,"Nicanor Garcia / Ascuncion Intersection, Makati City, Manila",,14.5683,121.024,,,0,,0
"LTFRB_2003",,"Nicanor Garcia / Kalayaan Ave Intersection, Makati City, Manila",,14.5667,121.024,,,0,,0
"LTFRB_2004",,"Manila South Cemetery, Kalayaan Ave, Makati City, Manila",,14.5677,121.021,,,0,,0
"LTFRB_2005",,"Kalayaan Ave, Makati City, Manila",,14.5672,121.022,,,0,,0
"LTFRB_2006",,"Kalayaan Ave / South Ave Intersection, Makati City, Manila",,14.5687,121.018,,,0,,0
"LTFRB_2007",,"Zapote / Kalayaan Ave, Makati City, Manila",,14.5695,121.016,,,0,,0
"LTFRB_2008",,"Kalayaan Ave, Makati City, Manila",,14.5711,121.014,,,0,,0
"LTFRB_2009",,"South Ave / Pablo Ocampo Sr. Extension, Makati City, Manila",,14.5666,121.017,,,0,,0
"LTFRB_201",,"Don Bastilio Bautista Boulevard / Paez, Malabon City",,14.6683,120.948,,,0,,0
"LTFRB_2010",,"Metropolitan Ave / South Avenue, Makati City, Manila",,14.5643,121.016,,,0,,0
"LTFRB_2011",,"Kamagong / Sacred Heart St, Makati City, Manila",,14.5646,121.014,,,0,,0
"LTFRB_2012",,"Ayala Ave / B Yakal Intersection, Makati City, Manila",,14.5629,121.016,,,0,,0
"LTFRB_2013",,"J.P. Rizal Ave / F.Zobel Intersection, Makati City, Manila",,14.5689,121.027,,,0,,0
"LTFRB_2014",,"J.P. Rizal Ave / M.L Quezon Intersection, Makati City, Manila",,14.568,121.03,,,0,,0
"LTFRB_2015",,"J.P. Rizal Ave / A. Mabini Intersection, Makati City, Manila",,14.5676,121.032,,,0,,0
"LTFRB_2016",,"Makati-Mandaluyong Bridge, Makati City, Manila",,14.569,121.031,,,0,,0
"LTFRB_2017",,"Guerrero / Makati Ave Intersection, Makati City, Manila",,14.5656,121.03,,,0,,0
"LTFRB_2018",,"Makati Ave / Hercules Intersection, Makati City, Manila",,14.5632,121.029,,,0,,0
"LTFRB_2019",,"Water Front Dr / Dr Jose P. Rizal Ave Intersection, Makati City, Manila",,14.5668,121.035,,,0,,0
"LTFRB_202",,"La Purisima Concepcion Academy of Malabon Inc, C. Arellano Road, Malabon City",,14.6671,120.947,,,0,,0
"LTFRB_2020",,"Dr Jose P. Rizal Ave, Makati City, Manila",,14.567,121.038,,,0,,0
"LTFRB_2021",,"Dr Jose P. Rizal Ave, Makati City, Manila",,14.5675,121.041,,,0,,0
"LTFRB_2022",,"Dr Jose P. Rizal Ave, Makati City, Manila",,14.568,121.044,,,0,,0
"LTFRB_2023",,"Progreso 2, Makati City, Manila",,14.5659,121.043,,,0,,0
"LTFRB_2024",,"Coronado / E.Pantaleon Intersection, Makati City, Manila",,14.5681,121.034,,,0,,0
"LTFRB_2025",,"Coronado / E.Pantaleon Intersection, Makati City, Manila",,14.5699,121.035,,,0,,0
"LTFRB_2026",,"Countryside  / E.Pantaleon Intersection, Makati City, Manila",,14.5697,121.038,,,0,,0
"LTFRB_2027",,"P.Victorino / E.Pantaleon Intersection, Makati City, Manila",,14.5695,121.041,,,0,,0
"LTFRB_2028",,"Alchan, Mandaluyong City, Manila",,14.5699,121.043,,,0,,0
"LTFRB_2029",,"Coronado, Mandaluyong City, Manila",,14.5707,121.031,,,0,,0
"LTFRB_203",,"Gen. Luna St., Bgy. Ibaba, Malabon City",,14.666,120.949,,,0,,0
"LTFRB_2030",,"Coronado, Mandaluyong City, Manila",,14.5721,121.03,,,0,,0
"LTFRB_2031",,"Coronado / Rte Rev. G. Aglipay Intersection, Mandaluyong City, Manila",,14.5734,121.028,,,0,,0
"LTFRB_2032",,"Rte Rev. G. Aglipay, Mandaluyong City, Manila",,14.5766,121.027,,,0,,0
"LTFRB_2033",,"Primo Cruz / M. Lerma Intersection, Mandaluyong City, Manila",,14.579,121.028,,,0,,0
"LTFRB_2034",,"Boni Ave / Primo Cruz Intersection, Mandaluyong City, Manila",,14.5813,121.029,,,0,,0
"LTFRB_2035",,"Primo Cruz / Ballesteros Intersection, Mandaluyong City, Manila",,14.5834,121.031,,,0,,0
"LTFRB_2036",,"F. Ortigas, Mandaluyong City, Manila",,14.586,121.032,,,0,,0
"LTFRB_2037",,"L. Gonzales / F. Ortigas, Mandaluyong City, Manila",,14.587,121.035,,,0,,0
"LTFRB_2038",,"Shaw Blvd / Acacia Ln Intersection, Mandaluyong City, Manila",,14.5894,121.035,,,0,,0
"LTFRB_2039",,"M. Yulo / Shaw Blvd Intersection, Mandaluyong City, Manila",,14.5906,121.034,,,0,,0
"LTFRB_204",,"Gen. Luna St. / Vidal Intersection, Malabon City",,14.664,120.95,,,0,,0
"LTFRB_2040",,"Lawson / Shaw Blvd Intersection, Mandaluyong City, Manila",,14.5919,121.031,,,0,,0
"LTFRB_2041",,"Shaw Blvd, Mandaluyong City, Manila",,14.5934,121.028,,,0,,0
"LTFRB_2042",,"Jose Rizal University, J Fabella St, Mandaluyong City, Manila",,14.5919,121.029,,,0,,0
"LTFRB_2043",,"J. Luna / Pinagtipunan Intersection, Mandaluyong City, Manila",,14.5905,121.032,,,0,,0
"LTFRB_2044",,"A. Bonifacio / Pinagtipunan Intersection, Mandaluyong City, Manila",,14.5886,121.033,,,0,,0
"LTFRB_2045",,"A. Bonifacio / P. Burgos Intersection, Mandaluyong City, Manila",,14.5892,121.03,,,0,,0
"LTFRB_2046",,"A.T. Reyes / A. Luna Intersection, Mandaluyong City, Manila",,14.5888,121.027,,,0,,0
"LTFRB_2047",,"Villarica St / A. Mabini Intersection, Mandaluyong City, Manila",,14.5868,121.023,,,0,,0
"LTFRB_2048",,"Boni Ave / A.T. Reyes Intersection, Mandaluyong City, Manila",,14.5859,121.026,,,0,,0
"LTFRB_2049",,"Boni Ave / F. Ortigas Intersection, Mandaluyong City, Manila",,14.5839,121.028,,,0,,0
"LTFRB_205",,"C. Arellano Road, Malabon City",,14.6648,120.949,,,0,,0
"LTFRB_2050",,"Shaw Blvd / Luna Mencias Intersection, Mandaluyong City, Manila",,14.5895,121.038,,,0,,0
"LTFRB_2051",,"Shaw Blvd, Mandaluyong City, Manila",,14.5892,121.042,,,0,,0
"LTFRB_2052",,"S. Laurel / Shaw Blvd Intersection, Mandaluyong City, Manila",,14.588,121.045,,,0,,0
"LTFRB_2053",,"ASI Automation & Security Innovation Products & Services, Shaw Blvd., Mandaluyong City, Manila",,14.5858,121.048,,,0,,0
"LTFRB_2054",,"Philippine Cosmetic and Plastic Surgery, Shaw Blvd, Mandaluyong City, Manila",,14.5833,121.051,,,0,,0
"LTFRB_2055",,"Epifanio de los Santos Avenue /  Shaw Blvd Intersection, Mandaluyong City, Manila",,14.5811,121.054,,,0,,0
"LTFRB_2056",,"Epifanio de los Santos Avenue / United Intersection, Mandaluyong City, Manila",,14.5793,121.052,,,0,,0
"LTFRB_2057",,"Epifanio de los Santos Avenue, Mandaluyong City, Manila",,14.5762,121.05,,,0,,0
"LTFRB_2058",,"Boni Ave / Epifanio de los Santos Avenue Intersection, Mandaluyong City, Manila",,14.5725,121.047,,,0,,0
"LTFRB_2059",,"Boni Ave near Pulog Intersection, Mandaluyong City, Manila",,14.5737,121.045,,,0,,0
"LTFRB_206",,"Malabon Central United Methodist Church,",,14.6623,120.95,,,0,,0
"LTFRB_2060",,"Arayat, Mandaluyong City, Manila",,14.5753,121.048,,,0,,0
"LTFRB_2061",,"Pioneer / Madison Intersection, Mandaluyong City, Manila",,14.5712,121.05,,,0,,0
"LTFRB_2062",,"Rizal Technological Universitty, Basilan / Boni Avenue, Mandaluyong City, Manila",,14.5751,121.042,,,0,,0
"LTFRB_2063",,"Boni Ave, Mandaluyong City, Manila",,14.5766,121.04,,,0,,0
"LTFRB_2064",,"Mandaluyong City Medical Center, Boni Ave / Sto Rosario Intersection, Mandaluyong City, Manila",,14.5763,121.035,,,0,,0
"LTFRB_2065",,"Boni Ave / Sto Rosario Intersection, Mandaluyong City, Manila",,14.5785,121.033,,,0,,0
"LTFRB_2066",,"Antipolo / Hormiga Intersection, Makati City, Manila",,14.571,121.026,,,0,,0
"LTFRB_2067",,"S Osmea / Angono Intersection, Makati City, Manila",,14.5714,121.027,,,0,,0
"LTFRB_2068",,"E Zobel, Manila",,14.57,121.029,,,0,,0
"LTFRB_2069",,"P.Oliveros, Mandaluyong City, Manila",,14.5715,121.041,,,0,,0
"LTFRB_207",,"C. Arellano Road, Malabon City, Gen. Luna St., Bgy. Ibaba, Malabon City",,14.6615,120.95,,,0,,0
"LTFRB_2070",,"South Dr / A. Arnaiz Ave Intersection, Makati City, Manila",,14.5493,121.025,,,0,,0
"LTFRB_2071",,"South Dr / A. Arnaiz Ave Intersection, Makati City, Manila",,14.5492,121.026,,,0,,0
"LTFRB_2072",,"D. Tuazon / Eulogio Rodriguez Sr Ave Intersection, Manila",,14.618,121.005,,,0,,0
"LTFRB_2073",,"Lopez Jaena / Eulogio Rodriguez Sr Ave Intersection, Manila",,14.6183,121.008,,,0,,0
"LTFRB_2074",,"Quezon Institute, Eulogio Rodriguez Sr Ave, Quezon City, Manila",,14.6186,121.012,,,0,,0
"LTFRB_2075",,"Gregorio Araneta Ave / Eulogio Rodriguez Sr Ave Intersection, Quezon City, Manila",,14.6188,121.015,,,0,,0
"LTFRB_2076",,"Delos Santos Medical Center, Eulogio Rodriguez Sr. Ave, Quezon City, Manila",,14.6197,121.018,,,0,,0
"LTFRB_2077",,"Eulogio Rodriguez Sr. Ave / La Florilla Intersection, Quezon City, Manila",,14.6203,121.02,,,0,,0
